[{"business_id":"1U-4B5gkUATXtsZrZ-KwSw","name":"Picasso Dental Arts","address":"1550 Old York Rd, Ste 4","city":"Abington","state":"PA","postal_code":"19001","latitude":40.1284,"longitude":-75.117,"stars":2.0,"review_count":6,"is_open":1,"attributes":"{\"ByAppointmentOnly\":\"False\"}","categories":"Health & Medical, General Dentistry, Dentists","hours":"{\"Wednesday\":\"15:0-19:0\",\"Friday\":\"9:0-14:0\",\"Saturday\":\"8:0-13:0\"}"},{"business_id":"pf4hV73PkEyNAhADEaNLXQ","name":"Larmon Photo","address":"1621 Old York Rd","city":"Abington","state":"PA","postal_code":"19001","latitude":40.1299,"longitude":-75.1161,"stars":3.0,"review_count":9,"is_open":1,"attributes":"{\"RestaurantsPriceRange2\":\"2\",\"BusinessAcceptsCreditCards\":\"True\",\"BusinessParking\":\"{'garage': False, 'street': True, 'validated': False, 'lot': True, 'valet': False}\",\"WheelchairAccessible\":\"True\"}","categories":"Digitizing Services, Hotels & Travel, Photography Stores & Services, Shopping, Passport & Visa Services, Local Services, Printing Services, Travel Services, Professional Services","hours":"{\"Monday\":\"9:0-19:0\",\"Tuesday\":\"9:0-19:0\",\"Wednesday\":\"9:0-19:0\",\"Thursday\":\"9:0-19:0\",\"Friday\":\"9:0-19:0\",\"Saturday\":\"9:0-17:0\",\"Sunday\":\"11:0-17:0\"}"},{"business_id":"pQ0WQwBPdpngQi_HdPYIag","name":"Thai Thanee","address":"1533 Old York Rd","city":"Abington","state":"PA","postal_code":"19001","latitude":40.127,"longitude":-75.1167,"stars":4.0,"review_count":18,"is_open":0,"attributes":"{\"RestaurantsGoodForGroups\":\"True\",\"GoodForKids\":\"True\",\"Alcohol\":\"u'none'\",\"RestaurantsTakeOut\":\"True\",\"RestaurantsPriceRange2\":\"2\",\"RestaurantsDelivery\":\"False\",\"RestaurantsReservations\":\"True\",\"BusinessAcceptsCreditCards\":\"True\",\"BusinessParking\":\"{'garage': False, 'street': False, 'validated': False, 'lot': False, 'valet': False}\",\"RestaurantsAttire\":\"'casual'\",\"OutdoorSeating\":\"False\"}","categories":"Thai, Restaurants","hours":"{\"Tuesday\":\"11:30-21:30\",\"Wednesday\":\"11:30-21:30\",\"Thursday\":\"11:30-21:30\",\"Friday\":\"11:30-22:30\",\"Saturday\":\"11:30-22:30\",\"Sunday\":\"17:0-21:30\"}"},{"business_id":"NmzXH-HdWp-Sxdfnw3imUQ","name":"Emoji Sushi & Teriyaki","address":"1600 Old York Rd","city":"Abington","state":"PA","postal_code":"19001","latitude":40.1297,"longitude":-75.1169,"stars":5.0,"review_count":13,"is_open":1,"attributes":"{\"HasTV\":\"True\",\"WheelchairAccessible\":\"True\",\"BusinessParking\":\"{u'valet': False, u'garage': False, u'street': False, u'lot': True, u'validated': False}\",\"RestaurantsDelivery\":\"True\",\"GoodForKids\":\"True\",\"WiFi\":\"u'free'\",\"BikeParking\":\"False\",\"Alcohol\":\"u'none'\",\"RestaurantsTableService\":\"True\",\"Corkage\":\"False\",\"Ambience\":\"{u'divey': None, u'hipster': None, u'casual': None, u'touristy': None, u'trendy': None, u'intimate': None, u'romantic': None, u'classy': True, u'upscale': None}\",\"BusinessAcceptsCreditCards\":\"True\",\"Caters\":\"True\",\"OutdoorSeating\":\"False\",\"BYOB\":\"True\",\"RestaurantsTakeOut\":\"True\"}","categories":"Steakhouses, Restaurants, Japanese, Sushi Bars","hours":"{\"Tuesday\":\"11:0-21:30\",\"Wednesday\":\"11:0-21:30\",\"Thursday\":\"11:0-21:30\",\"Friday\":\"11:0-22:30\",\"Saturday\":\"11:0-22:0\",\"Sunday\":\"12:0-21:30\"}"},{"business_id":"5BJVmYyAY87tWTRhv1Vfog","name":"Willard Pest Control","address":"","city":"Abington","state":"PA","postal_code":"19001","latitude":40.1318,"longitude":-75.1377,"stars":5.0,"review_count":7,"is_open":1,"attributes":"{\"BusinessAcceptsCreditCards\":\"False\",\"ByAppointmentOnly\":\"False\"}","categories":"Pest Control, Local Services","hours":"{\"Monday\":\"0:0-0:0\",\"Tuesday\":\"0:0-0:0\",\"Wednesday\":\"0:0-0:0\",\"Thursday\":\"0:0-0:0\",\"Friday\":\"0:0-0:0\",\"Saturday\":\"0:0-0:0\",\"Sunday\":\"0:0-0:0\"}"},{"business_id":"0OzT6ZgrYZNP95LMbbt2BQ","name":"D D Daughters Lace Wig Beautique","address":"1417 Old York Rd, Ste 207B","city":"abington","state":"PA","postal_code":"19001","latitude":40.1227,"longitude":-75.1165,"stars":2.5,"review_count":5,"is_open":1,"attributes":"{\"RestaurantsPriceRange2\":\"1\",\"ByAppointmentOnly\":\"True\",\"BikeParking\":\"False\",\"BusinessAcceptsCreditCards\":\"True\",\"DogsAllowed\":\"False\",\"HairSpecializesIn\":\"{'straightperms': True, 'coloring': True, 'extensions': True, 'africanamerican': True, 'curly': True, 'kids': True, 'perms': True, 'asian': True}\",\"WiFi\":\"u'free'\",\"BusinessAcceptsBitcoin\":\"False\",\"BusinessParking\":\"{u'valet': False, u'garage': False, u'street': False, u'lot': True, u'validated': False}\",\"WheelchairAccessible\":\"True\"}","categories":"Wigs, Makeup Artists, Hair Extensions, Shopping, Hair Salons, Beauty & Spas, Hair Stylists, Blow Dry\/Out Services","hours":"{\"Wednesday\":\"10:0-17:0\",\"Thursday\":\"10:0-17:30\",\"Friday\":\"10:0-17:0\",\"Saturday\":\"8:30-13:0\"}"},{"business_id":"6QiXS9ZsJKAyz96Xo-QZLA","name":"Mattress Outlet of Abington","address":"1518 Easton Rd","city":"Abington","state":"PA","postal_code":"19001","latitude":40.1316,"longitude":-75.1272,"stars":5.0,"review_count":10,"is_open":1,"attributes":"{\"BusinessAcceptsCreditCards\":\"True\",\"BusinessParking\":\"{'garage': False, 'street': False, 'validated': False, 'lot': True, 'valet': False}\",\"BikeParking\":\"True\",\"BusinessAcceptsBitcoin\":\"False\",\"RestaurantsPriceRange2\":\"1\"}","categories":"Furniture Stores, Shopping, Mattresses, Home & Garden","hours":"{\"Monday\":\"12:0-18:0\",\"Tuesday\":\"12:0-18:0\",\"Wednesday\":\"12:0-18:0\",\"Thursday\":\"12:0-18:0\",\"Friday\":\"12:0-17:0\",\"Saturday\":\"12:0-17:0\",\"Sunday\":\"12:0-15:0\"}"},{"business_id":"-UYMLGjgQ9kCTU24sVynYQ","name":"Abington Smile Center","address":"1501 Old York Rd","city":"Abington","state":"PA","postal_code":"19001","latitude":40.1261,"longitude":-75.1168,"stars":3.0,"review_count":14,"is_open":1,"attributes":"{\"BusinessAcceptsCreditCards\":\"True\",\"WiFi\":\"u'free'\",\"AcceptsInsurance\":\"True\",\"ByAppointmentOnly\":\"True\"}","categories":"Health & Medical, Dentists, Endodontists, Sleep Specialists, Cosmetic Dentists, General Dentistry, Urgent Care","hours":"{\"Monday\":\"0:0-0:0\",\"Tuesday\":\"9:0-18:0\",\"Wednesday\":\"9:0-18:0\",\"Thursday\":\"9:0-18:0\",\"Friday\":\"9:0-19:30\"}"},{"business_id":"JTM0CtxIIV8B9IEN8t4Plg","name":"La-Z-Boy Furniture Galleries","address":"1752 Old York Rd","city":"Abington","state":"PA","postal_code":"19001","latitude":40.1336,"longitude":-75.116,"stars":3.0,"review_count":10,"is_open":0,"attributes":"{\"RestaurantsPriceRange2\":\"3\",\"BusinessAcceptsCreditCards\":\"True\",\"BusinessParking\":\"{'garage': False, 'street': False, 'validated': False, 'lot': False, 'valet': False}\"}","categories":"Shopping, Home & Garden, Interior Design, Home Decor, Furniture Stores, Home Services","hours":"{\"Monday\":\"10:0-21:0\",\"Tuesday\":\"10:0-21:0\",\"Wednesday\":\"10:0-21:0\",\"Thursday\":\"10:0-21:0\",\"Friday\":\"10:0-21:0\",\"Saturday\":\"10:0-21:0\",\"Sunday\":\"11:0-18:0\"}"},{"business_id":"WZyr0I40FCeRnx3FOMmRsg","name":"Artware","address":"1495 Old York Rd, Ste 2","city":"Abington","state":"PA","postal_code":"19001","latitude":40.1252,"longitude":-75.1157,"stars":4.0,"review_count":16,"is_open":1,"attributes":"{\"RestaurantsPriceRange2\":\"2\",\"BusinessAcceptsCreditCards\":\"True\",\"ByAppointmentOnly\":\"False\",\"BikeParking\":\"True\",\"BusinessParking\":\"{'garage': False, 'street': False, 'validated': False, 'lot': True, 'valet': False}\"}","categories":"Jewelry, Shopping, Fashion, Watches, Accessories","hours":"{\"Monday\":\"10:0-20:0\",\"Tuesday\":\"10:0-20:0\",\"Wednesday\":\"10:0-20:0\",\"Thursday\":\"10:0-20:0\",\"Friday\":\"10:0-20:0\",\"Saturday\":\"9:0-21:0\",\"Sunday\":\"9:0-19:0\"}"},{"business_id":"mRFCkMufO5mSue9M4fjvbQ","name":"Jay Freedman, DDS & Associates","address":"1260 Easton Rd","city":"Abington","state":"PA","postal_code":"19001","latitude":40.1268,"longitude":-75.1317,"stars":5.0,"review_count":6,"is_open":1,"attributes":"{\"ByAppointmentOnly\":\"True\"}","categories":"Dentists, Health & Medical, Cosmetic Dentists, Oral Surgeons, Periodontists, General Dentistry","hours":"{\"Monday\":\"8:0-17:0\",\"Tuesday\":\"8:0-20:0\",\"Wednesday\":\"8:0-20:0\",\"Friday\":\"8:0-18:0\"}"},{"business_id":"zhLv02GHgcHl0KPzA8UF1g","name":"Lepore-Ba-Q","address":"1409 Easton Rd","city":"Abington","state":"PA","postal_code":"19001","latitude":40.1294,"longitude":-75.1284,"stars":3.0,"review_count":26,"is_open":0,"attributes":"{\"RestaurantsReservations\":\"False\",\"RestaurantsPriceRange2\":\"2\",\"BusinessAcceptsCreditCards\":\"True\",\"RestaurantsDelivery\":\"True\",\"GoodForKids\":\"True\",\"RestaurantsAttire\":\"'casual'\",\"RestaurantsTakeOut\":\"True\",\"OutdoorSeating\":\"False\",\"Caters\":\"True\",\"BikeParking\":\"False\",\"Alcohol\":\"'none'\",\"NoiseLevel\":\"'quiet'\",\"Ambience\":\"{'romantic': False, 'intimate': False, 'classy': False, 'hipster': False, 'divey': False, 'touristy': False, 'trendy': False, 'upscale': False, 'casual': False}\",\"WiFi\":\"'no'\",\"HasTV\":\"True\",\"BusinessParking\":\"{'garage': False, 'street': False, 'validated': False, 'lot': False, 'valet': False}\",\"GoodForMeal\":\"{'dessert': False, 'latenight': False, 'lunch': True, 'dinner': False, 'brunch': False, 'breakfast': False}\",\"RestaurantsGoodForGroups\":\"False\"}","categories":"Barbeque, Restaurants","hours":"{\"Tuesday\":\"10:0-21:0\",\"Wednesday\":\"10:0-21:0\",\"Thursday\":\"10:0-21:0\",\"Friday\":\"10:0-21:0\",\"Saturday\":\"11:0-21:0\",\"Sunday\":\"11:0-19:30\"}"},{"business_id":"CLU2nd7McrW0tf4f4WwnHg","name":"TerraVida Holistic Centers","address":"1626 Old York Rd","city":"Abington Township","state":"PA","postal_code":"19001","latitude":40.1303,"longitude":-75.1168,"stars":4.0,"review_count":21,"is_open":1,"attributes":"{\"BusinessAcceptsCreditCards\":\"False\",\"BusinessAcceptsBitcoin\":\"False\",\"DogsAllowed\":\"True\",\"WheelchairAccessible\":\"True\",\"BusinessParking\":\"{'garage': False, 'street': False, 'validated': False, 'lot': True, 'valet': False}\",\"RestaurantsPriceRange2\":\"2\"}","categories":"Cannabis Dispensaries, Shopping, Health & Medical, Cannabis Clinics","hours":"{\"Monday\":\"10:0-16:0\",\"Tuesday\":\"8:0-20:0\",\"Wednesday\":\"8:0-20:0\",\"Thursday\":\"8:0-20:0\",\"Friday\":\"8:0-20:0\",\"Saturday\":\"8:0-20:0\",\"Sunday\":\"9:0-17:0\"}"},{"business_id":"QMQP8sS4pRKDJ14I3fBD8Q","name":"Reed's Appliance Repair","address":"1477 Blue Jay Rd","city":"Abington","state":"PA","postal_code":"19001","latitude":40.1381,"longitude":-75.1393,"stars":3.5,"review_count":15,"is_open":1,"attributes":"{\"BusinessAcceptsCreditCards\":\"False\"}","categories":"Local Services, Appliances & Repair","hours":"{\"Monday\":\"9:0-17:0\",\"Tuesday\":\"9:0-17:0\",\"Wednesday\":\"9:0-17:0\",\"Thursday\":\"9:0-17:0\",\"Friday\":\"9:0-17:0\"}"},{"business_id":"w9Olv_WM0Uqjlmg5KawIhA","name":"Thai Cuisine & Cafe","address":"1170 Easton Rd","city":"Abington","state":"PA","postal_code":"19001","latitude":40.1241,"longitude":-75.1329,"stars":3.0,"review_count":8,"is_open":0,"attributes":"{\"OutdoorSeating\":\"False\",\"RestaurantsReservations\":\"True\",\"RestaurantsPriceRange2\":\"2\",\"HasTV\":\"False\",\"WiFi\":\"u'no'\",\"RestaurantsDelivery\":\"False\",\"RestaurantsGoodForGroups\":\"True\",\"GoodForKids\":\"True\",\"RestaurantsTakeOut\":\"True\",\"RestaurantsAttire\":\"u'casual'\",\"Alcohol\":\"u'none'\",\"BusinessAcceptsCreditCards\":\"True\",\"Ambience\":\"{'romantic': False, 'intimate': False, 'touristy': False, 'hipster': False, 'divey': False, 'classy': False, 'trendy': False, 'upscale': False, 'casual': False}\",\"NoiseLevel\":\"u'quiet'\",\"BusinessParking\":\"{'garage': False, 'street': False, 'validated': False, 'lot': False, 'valet': False}\"}","categories":"Thai, Restaurants","hours":"{\"Monday\":\"11:30-22:0\",\"Tuesday\":\"11:30-22:0\",\"Wednesday\":\"11:30-22:0\",\"Thursday\":\"11:30-22:0\",\"Friday\":\"11:30-22:0\",\"Saturday\":\"11:30-22:0\",\"Sunday\":\"17:0-22:0\"}"},{"business_id":"F-eHPbdh9bl8aeYDRws4BQ","name":"Chipotle Mexican Grill","address":"1437 Old York Rd","city":"Abington","state":"PA","postal_code":"19001","latitude":40.1233,"longitude":-75.1159,"stars":2.0,"review_count":64,"is_open":1,"attributes":"{\"GoodForKids\":\"True\",\"RestaurantsAttire\":\"'casual'\",\"OutdoorSeating\":\"True\",\"BikeParking\":\"True\",\"RestaurantsReservations\":\"False\",\"DriveThru\":\"False\",\"BusinessAcceptsCreditCards\":\"True\",\"RestaurantsPriceRange2\":\"1\",\"Alcohol\":\"u'none'\",\"RestaurantsTableService\":\"False\",\"WiFi\":\"'no'\",\"Ambience\":\"{'touristy': False, 'hipster': False, 'romantic': False, 'divey': False, 'intimate': False, 'trendy': False, 'upscale': False, 'classy': False, 'casual': True}\",\"NoiseLevel\":\"u'average'\",\"BusinessParking\":\"{'garage': False, 'street': False, 'validated': False, 'lot': True, 'valet': False}\",\"RestaurantsTakeOut\":\"True\",\"HasTV\":\"True\",\"GoodForMeal\":\"{'dessert': False, 'latenight': False, 'lunch': True, 'dinner': True, 'brunch': False, 'breakfast': False}\",\"RestaurantsGoodForGroups\":\"True\",\"RestaurantsDelivery\":\"True\"}","categories":"Mexican, Restaurants, Fast Food","hours":"{\"Monday\":\"0:0-0:0\",\"Tuesday\":\"10:45-22:0\",\"Wednesday\":\"10:45-22:0\",\"Thursday\":\"10:45-22:0\",\"Friday\":\"10:45-22:0\",\"Saturday\":\"10:45-22:0\",\"Sunday\":\"10:45-22:0\"}"},{"business_id":"UcdjvDYQg6B1Ht9FEqNKnw","name":"Little Caesars Pizza","address":"1331 Easton Rd","city":"Abington","state":"PA","postal_code":"19001","latitude":40.1269,"longitude":-75.1305,"stars":1.5,"review_count":14,"is_open":0,"attributes":"{\"RestaurantsGoodForGroups\":\"False\",\"RestaurantsPriceRange2\":\"1\",\"RestaurantsReservations\":\"False\",\"HasTV\":\"False\",\"RestaurantsAttire\":\"'casual'\",\"RestaurantsTakeOut\":\"True\",\"NoiseLevel\":\"u'quiet'\",\"Ambience\":\"{'touristy': False, 'hipster': False, 'romantic': False, 'divey': False, 'intimate': False, 'trendy': False, 'upscale': False, 'classy': False, 'casual': False}\",\"BikeParking\":\"False\",\"GoodForMeal\":\"{'dessert': False, 'latenight': False, 'lunch': False, 'dinner': False, 'brunch': False, 'breakfast': False}\",\"RestaurantsDelivery\":\"False\",\"BusinessAcceptsCreditCards\":\"True\",\"RestaurantsTableService\":\"False\",\"OutdoorSeating\":\"False\",\"WiFi\":\"u'no'\",\"GoodForKids\":\"True\"}","categories":"Chicken Wings, Pizza, Restaurants","hours":"NULL"},{"business_id":"Q9knOlfU9ppR1HhtK8r7qA","name":"Wawa","address":"2401 Susquehanna Rd","city":"Abington","state":"PA","postal_code":"19001","latitude":40.1228,"longitude":-75.1356,"stars":3.5,"review_count":9,"is_open":1,"attributes":"{\"Alcohol\":\"u'none'\",\"OutdoorSeating\":\"False\",\"RestaurantsTakeOut\":\"True\",\"BusinessAcceptsCreditCards\":\"True\",\"RestaurantsGoodForGroups\":\"True\",\"GoodForKids\":\"True\",\"RestaurantsReservations\":\"False\",\"RestaurantsAttire\":\"u'casual'\",\"BusinessParking\":\"{'garage': False, 'street': False, 'validated': False, 'lot': True, 'valet': False}\",\"GoodForMeal\":\"{'dessert': False, 'latenight': False, 'lunch': False, 'dinner': False, 'brunch': False, 'breakfast': False}\",\"RestaurantsPriceRange2\":\"1\",\"Ambience\":\"{'touristy': False, 'hipster': False, 'romantic': False, 'divey': False, 'intimate': False, 'trendy': False, 'upscale': False, 'classy': False, 'casual': False}\",\"RestaurantsDelivery\":\"True\",\"WiFi\":\"u'free'\"}","categories":"Delis, Restaurants, Coffee & Tea, Food, Breakfast & Brunch, Bagels, Sandwiches","hours":"{\"Monday\":\"0:0-0:0\",\"Tuesday\":\"0:0-0:0\",\"Wednesday\":\"0:0-0:0\",\"Thursday\":\"0:0-0:0\",\"Friday\":\"0:0-0:0\",\"Saturday\":\"0:0-0:0\",\"Sunday\":\"0:0-0:0\"}"},{"business_id":"zXnFTbBeqWP8A3YvmFme-Q","name":"Mavis Discount Tire","address":"1424 Old York Rd","city":"Abington","state":"PA","postal_code":"19001","latitude":40.1219,"longitude":-75.1181,"stars":4.0,"review_count":42,"is_open":1,"attributes":"{\"WiFi\":\"u'free'\",\"BusinessAcceptsCreditCards\":\"True\"}","categories":"Bike Rentals, Auto Repair, Oil Change Stations, Tires, Active Life, Automotive","hours":"{\"Monday\":\"0:0-0:0\",\"Tuesday\":\"8:0-18:0\",\"Wednesday\":\"8:0-18:0\",\"Thursday\":\"8:0-20:30\",\"Friday\":\"8:0-18:0\",\"Saturday\":\"8:0-17:0\",\"Sunday\":\"9:0-17:0\"}"},{"business_id":"uVNzMzly3ICsE_tgR-IlqA","name":"Saxbys Coffee","address":"1140 Old York Rd","city":"Abington","state":"PA","postal_code":"19001","latitude":40.116,"longitude":-75.1214,"stars":4.0,"review_count":5,"is_open":0,"attributes":"{\"WiFi\":\"u'free'\",\"BusinessAcceptsCreditCards\":\"True\",\"BusinessParking\":\"{'garage': False, 'street': False, 'validated': False, 'lot': False, 'valet': False}\",\"RestaurantsPriceRange2\":\"2\",\"OutdoorSeating\":\"True\"}","categories":"Food, Coffee & Tea","hours":"NULL"},{"business_id":"JmzNw0WCPmZPZdq5nx9brg","name":"Kitchen Bar","address":"1482 Old York Rd","city":"Abington","state":"PA","postal_code":"19001","latitude":40.1248,"longitude":-75.1178,"stars":2.5,"review_count":377,"is_open":0,"attributes":"{\"RestaurantsGoodForGroups\":\"True\",\"RestaurantsReservations\":\"True\",\"RestaurantsPriceRange2\":\"2\",\"BusinessAcceptsCreditCards\":\"True\",\"BusinessParking\":\"{'garage': False, 'street': False, 'validated': False, 'lot': True, 'valet': False}\",\"GoodForKids\":\"True\",\"RestaurantsTakeOut\":\"True\",\"RestaurantsAttire\":\"'casual'\",\"HasTV\":\"True\",\"Ambience\":\"{'romantic': False, 'intimate': False, 'classy': False, 'hipster': False, 'divey': False, 'touristy': False, 'trendy': True, 'upscale': False, 'casual': False}\",\"OutdoorSeating\":\"True\",\"WiFi\":\"u'no'\",\"Alcohol\":\"'full_bar'\",\"Caters\":\"False\",\"NoiseLevel\":\"u'average'\",\"GoodForMeal\":\"{'dessert': False, 'latenight': False, 'lunch': True, 'dinner': True, 'brunch': False, 'breakfast': False}\",\"RestaurantsDelivery\":\"None\",\"HappyHour\":\"True\",\"BikeParking\":\"False\"}","categories":"Event Planning & Services, Diners, Gluten-Free, Restaurants, American (Traditional), Venues & Event Spaces","hours":"{\"Monday\":\"8:0-2:0\",\"Tuesday\":\"8:0-2:0\",\"Wednesday\":\"8:0-2:0\",\"Thursday\":\"12:0-19:0\",\"Friday\":\"8:0-2:0\",\"Saturday\":\"8:0-2:0\",\"Sunday\":\"8:0-0:0\"}"},{"business_id":"bFln2Z17KfFIcEz4TRaHjw","name":"Iron Hill Brewery & Restaurant","address":"Huntingdon Valley Shopping Ctr, 785 Huntingdon Pike","city":"Abington Township","state":"PA","postal_code":"19006","latitude":40.0886,"longitude":-75.0926,"stars":4.0,"review_count":223,"is_open":1,"attributes":"{\"RestaurantsTableService\":\"True\",\"Caters\":\"False\",\"NoiseLevel\":\"u'average'\",\"RestaurantsPriceRange2\":\"2\",\"BusinessAcceptsCreditCards\":\"True\",\"GoodForKids\":\"True\",\"RestaurantsTakeOut\":\"True\",\"RestaurantsDelivery\":\"True\",\"HappyHour\":\"True\",\"OutdoorSeating\":\"True\",\"ByAppointmentOnly\":\"False\",\"HasTV\":\"True\",\"BikeParking\":\"False\",\"Ambience\":\"{'touristy': False, 'hipster': False, 'romantic': False, 'divey': False, 'intimate': False, 'trendy': True, 'upscale': False, 'classy': False, 'casual': True}\",\"RestaurantsReservations\":\"True\",\"RestaurantsGoodForGroups\":\"True\",\"Alcohol\":\"'full_bar'\",\"RestaurantsAttire\":\"'casual'\",\"BusinessParking\":\"{u'valet': False, u'garage': False, u'street': None, u'lot': True, u'validated': False}\",\"DogsAllowed\":\"False\",\"GoodForMeal\":\"{'dessert': False, 'latenight': False, 'lunch': True, 'dinner': True, 'brunch': False, 'breakfast': False}\",\"WiFi\":\"'free'\"}","categories":"Restaurants, Food, Breweries, American (New)","hours":"{\"Monday\":\"11:30-21:30\",\"Tuesday\":\"11:30-21:30\",\"Wednesday\":\"11:30-21:30\",\"Thursday\":\"11:30-22:30\",\"Friday\":\"11:30-23:0\",\"Saturday\":\"11:30-23:0\",\"Sunday\":\"11:30-21:30\"}"},{"business_id":"m5OsX6UdhfYrMrQVIWzuIg","name":"Mr Tire Auto Service Centers","address":"968 Old York Rd","city":"Abington","state":"PA","postal_code":"19001","latitude":40.1095,"longitude":-75.1237,"stars":3.5,"review_count":12,"is_open":0,"attributes":"{\"BusinessAcceptsCreditCards\":\"True\"}","categories":"Automotive, Oil Change Stations, Tires, Auto Repair","hours":"{\"Monday\":\"7:30-18:0\",\"Tuesday\":\"7:30-18:0\",\"Wednesday\":\"7:30-18:0\",\"Thursday\":\"7:30-18:0\",\"Friday\":\"7:30-18:0\",\"Saturday\":\"7:30-18:0\"}"},{"business_id":"fLdPuGl9_fa9PYFYb0gihA","name":"R&R Caribbean Cuisine","address":"1348 Easton Rd","city":"Abington","state":"PA","postal_code":"19001","latitude":40.1286,"longitude":-75.1303,"stars":4.5,"review_count":86,"is_open":0,"attributes":"{\"WheelchairAccessible\":\"True\",\"RestaurantsReservations\":\"False\",\"BusinessAcceptsCreditCards\":\"True\",\"RestaurantsDelivery\":\"False\",\"BikeParking\":\"True\",\"WiFi\":\"'no'\",\"OutdoorSeating\":\"False\",\"RestaurantsTableService\":\"False\",\"RestaurantsTakeOut\":\"True\",\"Ambience\":\"{'touristy': False, 'hipster': False, 'romantic': False, 'divey': False, 'intimate': False, 'trendy': False, 'upscale': False, 'classy': False, 'casual': True}\",\"RestaurantsPriceRange2\":\"2\",\"Caters\":\"True\",\"HasTV\":\"True\",\"Alcohol\":\"u'none'\",\"GoodForKids\":\"True\",\"GoodForMeal\":\"{'dessert': False, 'latenight': False, 'lunch': False, 'dinner': True, 'brunch': False, 'breakfast': False}\",\"RestaurantsGoodForGroups\":\"True\",\"RestaurantsAttire\":\"u'casual'\",\"BusinessParking\":\"{'garage': False, 'street': False, 'validated': False, 'lot': True, 'valet': False}\",\"NoiseLevel\":\"u'quiet'\"}","categories":"Restaurants, Trinidadian, Caribbean","hours":"{\"Monday\":\"0:0-0:0\",\"Wednesday\":\"11:0-20:0\",\"Thursday\":\"11:0-20:0\",\"Friday\":\"11:0-21:0\",\"Saturday\":\"11:0-21:0\",\"Sunday\":\"12:0-19:0\"}"},{"business_id":"CtXmbmKIB2WrzkWmgfkxIQ","name":"Bloomingdale's","address":"2400 Moreland Rd","city":"Abington","state":"PA","postal_code":"19090","latitude":40.1398,"longitude":-75.1218,"stars":3.5,"review_count":16,"is_open":1,"attributes":"{\"BusinessAcceptsCreditCards\":\"True\",\"BusinessParking\":\"{'garage': False, 'street': False, 'validated': False, 'lot': True, 'valet': False}\",\"RestaurantsPriceRange2\":\"3\",\"BikeParking\":\"False\"}","categories":"Fashion, Department Stores, Shopping","hours":"NULL"},{"business_id":"lVirNKheM7Ps8eVRt0IyOg","name":"2 Fat Dogs","address":"1156 Easton Rd","city":"Abington","state":"PA","postal_code":"19001","latitude":40.1232,"longitude":-75.1329,"stars":5.0,"review_count":85,"is_open":1,"attributes":"{\"Alcohol\":\"u'none'\",\"BusinessAcceptsCreditCards\":\"True\",\"GoodForMeal\":\"{'dessert': False, 'latenight': False, 'lunch': False, 'dinner': False, 'brunch': False, 'breakfast': False}\",\"Caters\":\"True\",\"HappyHour\":\"False\",\"RestaurantsTableService\":\"False\",\"RestaurantsTakeOut\":\"True\",\"GoodForKids\":\"True\",\"NoiseLevel\":\"u'quiet'\",\"RestaurantsAttire\":\"u'casual'\",\"BusinessParking\":\"{'garage': False, 'street': True, 'validated': False, 'lot': False, 'valet': False}\",\"ByAppointmentOnly\":\"False\",\"WheelchairAccessible\":\"True\",\"WiFi\":\"u'no'\",\"DogsAllowed\":\"False\",\"Ambience\":\"{'touristy': None, 'hipster': False, 'romantic': False, 'divey': False, 'intimate': False, 'trendy': False, 'upscale': False, 'classy': False, 'casual': True}\",\"RestaurantsDelivery\":\"False\",\"BikeParking\":\"True\",\"RestaurantsGoodForGroups\":\"False\",\"RestaurantsReservations\":\"False\",\"HasTV\":\"True\",\"BusinessAcceptsBitcoin\":\"False\",\"OutdoorSeating\":\"False\",\"RestaurantsPriceRange2\":\"1\"}","categories":"Restaurants, Soup, Sandwiches","hours":"{\"Monday\":\"0:0-0:0\",\"Tuesday\":\"11:30-15:0\",\"Wednesday\":\"11:30-15:0\",\"Thursday\":\"11:0-16:0\",\"Friday\":\"11:0-16:0\",\"Saturday\":\"12:0-15:30\"}"},{"business_id":"Dz_TaJTV3CLbz3MHdc2tSw","name":"America's Best Contacts & Eyeglasses","address":"1495 Old York Rd","city":"Abington","state":"PA","postal_code":"19001","latitude":40.1253,"longitude":-75.1161,"stars":3.5,"review_count":22,"is_open":1,"attributes":"{\"BikeParking\":\"False\",\"RestaurantsPriceRange2\":\"2\",\"BusinessAcceptsCreditCards\":\"True\",\"BusinessParking\":\"{'garage': False, 'street': False, 'validated': False, 'lot': True, 'valet': False}\",\"ByAppointmentOnly\":\"False\"}","categories":"Eyewear & Opticians, Optometrists, Doctors, Health & Medical, Ophthalmologists, Shopping","hours":"{\"Monday\":\"0:0-0:0\",\"Tuesday\":\"9:0-18:0\",\"Wednesday\":\"9:0-15:0\",\"Thursday\":\"9:0-19:0\",\"Friday\":\"9:0-19:0\",\"Saturday\":\"9:0-18:0\"}"},{"business_id":"-ka45SR1nuoxUU4eTamE_w","name":"Abington All Star Bagel","address":"1825 Old York Rd","city":"Abington","state":"PA","postal_code":"19001","latitude":40.1357,"longitude":-75.1144,"stars":4.5,"review_count":58,"is_open":0,"attributes":"{\"RestaurantsReservations\":\"False\",\"BikeParking\":\"False\",\"OutdoorSeating\":\"False\",\"GoodForMeal\":\"{'dessert': False, 'latenight': False, 'lunch': True, 'dinner': False, 'brunch': True, 'breakfast': True}\",\"HasTV\":\"True\",\"Alcohol\":\"u'none'\",\"BusinessAcceptsCreditCards\":\"True\",\"Ambience\":\"{'romantic': False, 'intimate': False, 'classy': False, 'hipster': False, 'divey': False, 'touristy': False, 'trendy': False, 'upscale': False, 'casual': False}\",\"GoodForKids\":\"True\",\"RestaurantsAttire\":\"'casual'\",\"WiFi\":\"'no'\",\"RestaurantsDelivery\":\"False\",\"BusinessParking\":\"{'garage': False, 'street': False, 'validated': False, 'lot': False, 'valet': False}\",\"RestaurantsTakeOut\":\"True\",\"RestaurantsGoodForGroups\":\"False\",\"RestaurantsTableService\":\"False\",\"RestaurantsPriceRange2\":\"1\",\"NoiseLevel\":\"u'average'\"}","categories":"Sandwiches, Coffee & Tea, Restaurants, Food, Delis, Breakfast & Brunch, Bagels","hours":"{\"Monday\":\"6:0-13:0\",\"Tuesday\":\"6:0-13:0\",\"Wednesday\":\"6:0-13:0\",\"Thursday\":\"6:0-13:0\",\"Friday\":\"6:0-13:0\",\"Saturday\":\"6:0-13:0\",\"Sunday\":\"6:0-13:0\"}"},{"business_id":"CZgkZ9U5E-pSOxTSDKBEGQ","name":"Cindy's Signature Dry Cleaners","address":"1318 Easton Rd","city":"Abington","state":"PA","postal_code":"19001","latitude":40.1277,"longitude":-75.131,"stars":5.0,"review_count":8,"is_open":1,"attributes":"{\"RestaurantsPriceRange2\":\"2\",\"BusinessAcceptsCreditCards\":\"True\",\"BusinessParking\":\"{'garage': False, 'street': False, 'validated': False, 'lot': False, 'valet': False}\"}","categories":"Laundry Services, Local Services, Dry Cleaning, Dry Cleaning & Laundry","hours":"{\"Monday\":\"8:0-18:0\",\"Tuesday\":\"8:0-18:0\",\"Wednesday\":\"8:0-18:0\",\"Thursday\":\"8:0-18:0\",\"Friday\":\"8:0-18:0\",\"Saturday\":\"8:0-16:0\"}"},{"business_id":"AYGTSbCoWr2mCrw9HuelnA","name":"Peace A Pizza","address":"1140 Old York Rd","city":"Abington","state":"PA","postal_code":"19001","latitude":40.116,"longitude":-75.1214,"stars":3.5,"review_count":5,"is_open":0,"attributes":"{\"RestaurantsDelivery\":\"True\",\"RestaurantsReservations\":\"False\",\"GoodForKids\":\"True\",\"RestaurantsTakeOut\":\"True\",\"RestaurantsAttire\":\"u'casual'\",\"RestaurantsGoodForGroups\":\"False\",\"BusinessAcceptsCreditCards\":\"True\",\"Alcohol\":\"u'none'\",\"OutdoorSeating\":\"True\",\"BusinessParking\":\"{'garage': False, 'street': False, 'validated': False, 'lot': False, 'valet': False}\"}","categories":"Pizza, Restaurants","hours":"{\"Monday\":\"23:0-21:0\",\"Tuesday\":\"23:0-21:0\",\"Wednesday\":\"23:0-21:0\",\"Thursday\":\"23:0-21:0\",\"Friday\":\"23:0-21:0\",\"Saturday\":\"23:0-21:0\",\"Sunday\":\"23:0-21:0\"}"},{"business_id":"AcvTfzjZ7Kw42HF5ew-Bpg","name":"Kiku","address":"1844 Old York Rd","city":"Abington","state":"PA","postal_code":"19001","latitude":40.1367,"longitude":-75.1143,"stars":4.0,"review_count":26,"is_open":0,"attributes":"{\"Caters\":\"True\",\"RestaurantsPriceRange2\":\"2\",\"BusinessAcceptsCreditCards\":\"True\",\"RestaurantsAttire\":\"u'casual'\",\"RestaurantsGoodForGroups\":\"True\",\"BusinessParking\":\"{'garage': False, 'street': False, 'validated': False, 'lot': True, 'valet': False}\",\"GoodForKids\":\"True\",\"RestaurantsDelivery\":\"True\",\"Alcohol\":\"u'none'\",\"WiFi\":\"u'no'\",\"Ambience\":\"{'romantic': False, 'intimate': False, 'touristy': False, 'hipster': False, 'divey': False, 'classy': False, 'trendy': False, 'upscale': False, 'casual': True}\",\"HasTV\":\"False\",\"OutdoorSeating\":\"False\",\"RestaurantsReservations\":\"True\",\"RestaurantsTakeOut\":\"True\",\"NoiseLevel\":\"u'quiet'\"}","categories":"Sushi Bars, Korean, Restaurants, Japanese","hours":"{\"Monday\":\"11:30-22:0\",\"Tuesday\":\"11:30-22:0\",\"Wednesday\":\"11:30-22:0\",\"Thursday\":\"11:30-22:0\",\"Friday\":\"11:30-22:0\",\"Saturday\":\"11:30-22:0\"}"},{"business_id":"H1FXzbmnMPXRfOrTo1qxKw","name":"Kung Fu Tea","address":"1129 Old York Rd","city":"Abington","state":"PA","postal_code":"19001","latitude":40.1154,"longitude":-75.121,"stars":4.0,"review_count":58,"is_open":1,"attributes":"{\"RestaurantsTakeOut\":\"True\",\"GoodForKids\":\"True\",\"WiFi\":\"u'free'\",\"BusinessAcceptsCreditCards\":\"True\",\"DogsAllowed\":\"False\",\"BusinessParking\":\"{'garage': False, 'street': False, 'validated': False, 'lot': True, 'valet': False}\",\"NoiseLevel\":\"u'average'\",\"RestaurantsDelivery\":\"True\",\"OutdoorSeating\":\"False\",\"Caters\":\"True\"}","categories":"Specialty Food, Macarons, Coffee & Tea, Juice Bars & Smoothies, Bubble Tea, Food","hours":"{\"Monday\":\"11:0-22:0\",\"Tuesday\":\"11:0-22:0\",\"Wednesday\":\"11:0-22:0\",\"Thursday\":\"11:0-22:0\",\"Friday\":\"11:0-22:0\",\"Saturday\":\"11:0-22:0\",\"Sunday\":\"11:0-22:0\"}"},{"business_id":"Q9FuyltF8hyy1eNGr-HD_A","name":"King Kong Buffet","address":"1495 Old York Rd","city":"Abington","state":"PA","postal_code":"19001","latitude":40.1252,"longitude":-75.1158,"stars":3.0,"review_count":26,"is_open":0,"attributes":"{\"GoodForKids\":\"True\",\"Ambience\":\"{'romantic': False, 'intimate': False, 'classy': False, 'hipster': False, 'divey': False, 'touristy': False, 'trendy': False, 'upscale': False, 'casual': True}\",\"RestaurantsGoodForGroups\":\"True\",\"BusinessParking\":\"{'garage': False, 'street': False, 'validated': False, 'lot': True, 'valet': False}\",\"BikeParking\":\"True\",\"BusinessAcceptsCreditCards\":\"True\",\"RestaurantsTakeOut\":\"True\",\"Caters\":\"True\",\"RestaurantsAttire\":\"u'casual'\",\"WiFi\":\"u'no'\",\"RestaurantsReservations\":\"True\",\"Alcohol\":\"u'none'\",\"NoiseLevel\":\"u'average'\",\"RestaurantsDelivery\":\"False\",\"HasTV\":\"False\",\"OutdoorSeating\":\"False\",\"RestaurantsPriceRange2\":\"2\"}","categories":"Restaurants, Food, Buffets","hours":"{\"Monday\":\"11:0-22:0\",\"Tuesday\":\"11:0-22:0\",\"Wednesday\":\"11:0-22:0\",\"Thursday\":\"11:0-22:0\",\"Friday\":\"11:0-23:0\",\"Saturday\":\"11:0-23:0\",\"Sunday\":\"11:30-22:0\"}"},{"business_id":"LjHc51EB9aSXwauXxHuwMA","name":"Rite Aid","address":"1441 Old York Rd","city":"Abington","state":"PA","postal_code":"19001","latitude":40.1235,"longitude":-75.1157,"stars":3.5,"review_count":5,"is_open":1,"attributes":"{\"BusinessParking\":\"{'garage': False, 'street': False, 'validated': False, 'lot': False, 'valet': False}\",\"RestaurantsPriceRange2\":\"1\",\"BusinessAcceptsCreditCards\":\"True\"}","categories":"Drugstores, Shopping, Food, Convenience Stores, Photography Stores & Services","hours":"{\"Monday\":\"7:0-22:0\",\"Tuesday\":\"7:0-22:0\",\"Wednesday\":\"7:0-22:0\",\"Thursday\":\"7:0-22:0\",\"Friday\":\"7:0-22:0\",\"Saturday\":\"7:0-22:0\",\"Sunday\":\"7:0-22:0\"}"},{"business_id":"ZtUhhZ67eoHg30c-nPXC1Q","name":"Briar Bush Nature Center","address":"1212 Edge Hill Rd","city":"Abington","state":"PA","postal_code":"19001","latitude":40.1228,"longitude":-75.1282,"stars":4.5,"review_count":7,"is_open":1,"attributes":"{\"ByAppointmentOnly\":\"False\",\"WiFi\":\"u'no'\",\"GoodForKids\":\"True\",\"WheelchairAccessible\":\"True\",\"BusinessParking\":\"{'garage': False, 'street': True, 'validated': False, 'lot': True, 'valet': False}\",\"BusinessAcceptsCreditCards\":\"True\",\"DogsAllowed\":\"False\",\"BikeParking\":\"True\"}","categories":"Local Services, Event Planning & Services, Observatories, Summer Camps, Venues & Event Spaces, Community Service\/Non-Profit, Active Life, Children's Museums, Education, Arts & Entertainment, Kids Activities, Museums, Hiking, Playgrounds, Parks","hours":"{\"Monday\":\"9:0-17:0\",\"Tuesday\":\"9:0-17:0\",\"Wednesday\":\"9:0-17:0\",\"Thursday\":\"9:0-17:0\",\"Friday\":\"9:0-17:0\",\"Saturday\":\"10:0-17:0\",\"Sunday\":\"13:0-17:0\"}"},{"business_id":"dJBD0R6Pb24J0UPQbwNgjA","name":"Big Top Beverage","address":"1555 Easton Rd","city":"Abington","state":"PA","postal_code":"19001","latitude":40.1316,"longitude":-75.126,"stars":4.5,"review_count":14,"is_open":1,"attributes":"{\"BusinessParking\":\"{'garage': False, 'street': False, 'validated': False, 'lot': True, 'valet': False}\",\"BusinessAcceptsCreditCards\":\"True\",\"BikeParking\":\"True\",\"RestaurantsPriceRange2\":\"1\"}","categories":"Beer, Wine & Spirits, Food","hours":"{\"Monday\":\"10:0-20:0\",\"Tuesday\":\"10:0-20:0\",\"Wednesday\":\"10:0-20:0\",\"Thursday\":\"10:0-20:0\",\"Friday\":\"9:0-21:0\",\"Saturday\":\"9:0-21:0\",\"Sunday\":\"11:0-17:0\"}"},{"business_id":"Rbwv4oJx5i9ldnsMkwCBiQ","name":"Icing","address":"2500 W Moreland Rd, Ste 3018","city":"Abington","state":"PA","postal_code":"19090","latitude":40.1401,"longitude":-75.1235,"stars":1.0,"review_count":5,"is_open":1,"attributes":"{\"ByAppointmentOnly\":\"False\",\"BusinessAcceptsCreditCards\":\"True\",\"BikeParking\":\"False\",\"RestaurantsPriceRange2\":\"1\",\"BusinessParking\":\"{'garage': False, 'street': False, 'validated': False, 'lot': False, 'valet': False}\"}","categories":"Shopping, Jewelry","hours":"NULL"},{"business_id":"yMBgE8VN05khK1yNpbZaRw","name":"a2b Technologies - a2b PC Repair","address":"1061 Easton Rd","city":"Abington","state":"PA","postal_code":"19001","latitude":40.1197,"longitude":-75.1348,"stars":5.0,"review_count":6,"is_open":1,"attributes":"{\"BusinessAcceptsCreditCards\":\"True\"}","categories":"Electronics Repair, Local Services, IT Services & Computer Repair, Shopping, Professional Services, Web Design, Computers","hours":"{\"Monday\":\"8:30-18:0\",\"Tuesday\":\"8:30-18:0\",\"Wednesday\":\"8:30-18:0\",\"Thursday\":\"8:30-18:0\",\"Friday\":\"8:30-18:0\",\"Saturday\":\"10:0-14:0\"}"},{"business_id":"7jyJmzz5hT5SdoZD0vzrxQ","name":"Salon New","address":"1751 Old York Rd","city":"Abington","state":"PA","postal_code":"19001","latitude":40.133,"longitude":-75.1152,"stars":4.0,"review_count":7,"is_open":1,"attributes":"{\"BusinessParking\":\"{'garage': False, 'street': False, 'validated': False, 'lot': False, 'valet': False}\"}","categories":"Beauty & Spas, Nail Salons, Hair Removal, Waxing, Eyelash Service","hours":"{\"Monday\":\"10:0-19:30\",\"Tuesday\":\"10:0-19:30\",\"Wednesday\":\"10:0-19:30\",\"Thursday\":\"10:0-19:30\",\"Friday\":\"10:0-19:30\",\"Saturday\":\"9:30-18:0\"}"},{"business_id":"yI4oXmfpNBEyksq5GQQKgA","name":"Michaels","address":"1415 Old York Rd","city":"Abington","state":"PA","postal_code":"19001","latitude":40.1229,"longitude":-75.1166,"stars":3.0,"review_count":14,"is_open":1,"attributes":"{\"BikeParking\":\"True\",\"RestaurantsPriceRange2\":\"2\",\"BusinessParking\":\"{'garage': False, 'street': False, 'validated': False, 'lot': False, 'valet': False}\",\"BusinessAcceptsCreditCards\":\"True\"}","categories":"Hobby Shops, Shopping, Arts & Crafts, Knitting Supplies","hours":"{\"Monday\":\"0:0-0:0\",\"Tuesday\":\"9:0-18:0\",\"Wednesday\":\"10:0-19:0\",\"Thursday\":\"17:0-0:0\",\"Friday\":\"7:0-22:0\",\"Saturday\":\"8:0-22:0\",\"Sunday\":\"10:0-19:0\"}"},{"business_id":"R0mHWvY_JvI7kUTTym7C8Q","name":"AnBrea's Beauty Salon","address":"1166 Easton Road","city":"Abington","state":"PA","postal_code":"19001","latitude":40.1235,"longitude":-75.1331,"stars":5.0,"review_count":8,"is_open":1,"attributes":"{\"GoodForKids\":\"True\",\"BikeParking\":\"False\",\"RestaurantsPriceRange2\":\"2\",\"WheelchairAccessible\":\"True\",\"BusinessAcceptsCreditCards\":\"True\",\"BusinessParking\":\"{'garage': False, 'street': True, 'validated': False, 'lot': True, 'valet': False}\",\"ByAppointmentOnly\":\"True\",\"BusinessAcceptsBitcoin\":\"False\",\"WiFi\":\"u'no'\",\"HairSpecializesIn\":\"{'straightperms': False, 'coloring': True, 'extensions': True, 'africanamerican': True, 'curly': True, 'kids': False, 'perms': False, 'asian': True}\"}","categories":"Beauty & Spas, Hair Salons, Hair Stylists, Blow Dry\/Out Services","hours":"{\"Monday\":\"0:0-0:0\",\"Tuesday\":\"9:0-14:0\",\"Wednesday\":\"9:0-17:0\",\"Thursday\":\"9:0-17:0\",\"Friday\":\"9:0-17:0\",\"Saturday\":\"8:0-15:0\"}"},{"business_id":"HkTXTnLmZMEY_2sW0c_bKg","name":"Juan's Reflexology","address":"1863-65 Old York Rd, Ste A","city":"Abington","state":"PA","postal_code":"19001","latitude":40.1368,"longitude":-75.1134,"stars":4.5,"review_count":16,"is_open":1,"attributes":"{\"RestaurantsPriceRange2\":\"2\",\"WheelchairAccessible\":\"False\",\"ByAppointmentOnly\":\"False\",\"BusinessAcceptsCreditCards\":\"True\",\"WiFi\":\"u'free'\",\"BusinessParking\":\"{'garage': False, 'street': False, 'validated': False, 'lot': False, 'valet': False}\",\"AcceptsInsurance\":\"True\"}","categories":"Massage, Beauty & Spas, Health & Medical, Reflexology, Massage Therapy","hours":"{\"Monday\":\"9:30-21:30\",\"Tuesday\":\"9:30-21:30\",\"Wednesday\":\"9:30-21:30\",\"Thursday\":\"9:30-21:30\",\"Friday\":\"9:30-21:30\",\"Saturday\":\"9:30-21:30\",\"Sunday\":\"9:30-21:30\"}"},{"business_id":"AjmiBkH_tFUmr4Sn8OTgOw","name":"Gus Arias Painting","address":"1838 Eckard Ave","city":"Abington","state":"PA","postal_code":"19001","latitude":40.1153,"longitude":-75.1192,"stars":4.5,"review_count":6,"is_open":1,"attributes":"NULL","categories":"Home Services, Painters","hours":"NULL"},{"business_id":"6kRQOVhn7Kmdlhd1knHSlw","name":"Fanta-C Beauty Bar","address":"1713 Old York Rd","city":"Abington","state":"PA","postal_code":"19001","latitude":40.132,"longitude":-75.1156,"stars":5.0,"review_count":7,"is_open":1,"attributes":"{\"GoodForKids\":\"True\",\"ByAppointmentOnly\":\"False\",\"RestaurantsPriceRange2\":\"2\",\"BusinessAcceptsCreditCards\":\"True\"}","categories":"Hair Salons, Hair Stylists, Blow Dry\/Out Services, Makeup Artists, Hair Extensions, Nail Salons, Waxing, Beauty & Spas, Hair Removal","hours":"{\"Monday\":\"10:0-12:0\",\"Tuesday\":\"9:0-14:0\",\"Wednesday\":\"9:0-18:0\",\"Thursday\":\"9:0-18:0\",\"Friday\":\"9:0-19:0\",\"Saturday\":\"8:0-16:0\",\"Sunday\":\"10:0-15:0\"}"},{"business_id":"l-LfqtfzzkNVDIFPJwuIYw","name":"Great Clips","address":"1475 Old York Rd","city":"Abington","state":"PA","postal_code":"19001","latitude":40.124,"longitude":-75.1157,"stars":2.5,"review_count":14,"is_open":1,"attributes":"{\"GoodForKids\":\"True\",\"RestaurantsPriceRange2\":\"1\",\"ByAppointmentOnly\":\"False\",\"BusinessAcceptsCreditCards\":\"True\",\"BikeParking\":\"True\",\"WheelchairAccessible\":\"True\",\"BusinessParking\":\"{'garage': False, 'street': True, 'validated': False, 'lot': False, 'valet': False}\"}","categories":"Hair Salons, Beauty & Spas","hours":"{\"Monday\":\"9:0-21:0\",\"Tuesday\":\"9:0-21:0\",\"Wednesday\":\"9:0-21:0\",\"Thursday\":\"9:0-21:0\",\"Friday\":\"9:0-21:0\",\"Saturday\":\"8:0-18:0\",\"Sunday\":\"9:0-17:0\"}"},{"business_id":"_79Z5wHA9hO-XvEASrb-Mg","name":"Easy Living Home Care","address":"","city":"Abington","state":"PA","postal_code":"19001","latitude":40.1314,"longitude":-75.137,"stars":4.5,"review_count":6,"is_open":1,"attributes":"{\"BusinessAcceptsCreditCards\":\"False\"}","categories":"Pet Services, Home Services, Handyman, Dog Walkers, Pets, Home Cleaning","hours":"{\"Monday\":\"9:0-17:0\",\"Tuesday\":\"9:0-17:0\",\"Wednesday\":\"9:0-17:0\",\"Thursday\":\"9:0-17:0\",\"Friday\":\"9:0-17:0\"}"},{"business_id":"9G3YciHeZYY6qfVGHBCHJQ","name":"District Taco","address":"1475 Old York Rd","city":"Abington","state":"PA","postal_code":"19001","latitude":40.124,"longitude":-75.1162,"stars":3.5,"review_count":16,"is_open":1,"attributes":"{\"RestaurantsTakeOut\":\"None\",\"BusinessAcceptsCreditCards\":\"True\",\"Ambience\":\"{u'divey': None, u'hipster': False, u'casual': True, u'touristy': False, u'trendy': None, u'intimate': None, u'romantic': False, u'classy': False, u'upscale': None}\",\"RestaurantsDelivery\":\"None\",\"RestaurantsPriceRange2\":\"2\",\"BusinessParking\":\"{u'valet': False, u'garage': None, u'street': None, u'lot': True, u'validated': False}\",\"RestaurantsReservations\":\"False\",\"Alcohol\":\"u'none'\"}","categories":"Mexican, Restaurants, Breakfast & Brunch","hours":"{\"Monday\":\"0:0-0:0\",\"Tuesday\":\"11:0-21:0\",\"Wednesday\":\"11:0-21:0\",\"Thursday\":\"11:0-21:0\",\"Friday\":\"11:0-21:0\",\"Saturday\":\"11:0-21:0\",\"Sunday\":\"11:0-20:0\"}"},{"business_id":"LcfRa4SsnUsuDy-P1V2Vxg","name":"Abington Plaza Medical Associates","address":"1235 Old York Rd","city":"Abington","state":"PA","postal_code":"19001","latitude":40.1184,"longitude":-75.1189,"stars":4.0,"review_count":5,"is_open":1,"attributes":"{\"ByAppointmentOnly\":\"True\",\"BusinessAcceptsCreditCards\":\"True\"}","categories":"Osteopathic Physicians, Doctors, Health & Medical","hours":"NULL"},{"business_id":"R4BGGSaz0y5Bq2bCWDQAQg","name":"Tien Thai Pho","address":"1533 Old York Rd","city":"Abington","state":"PA","postal_code":"19001","latitude":40.1271,"longitude":-75.1167,"stars":3.0,"review_count":43,"is_open":0,"attributes":"{\"BusinessParking\":\"{'garage': False, 'street': False, 'validated': False, 'lot': True, 'valet': False}\",\"GoodForKids\":\"True\",\"Ambience\":\"{'romantic': False, 'intimate': False, 'touristy': False, 'hipster': False, 'divey': False, 'classy': False, 'trendy': False, 'upscale': False, 'casual': True}\",\"WiFi\":\"u'free'\",\"RestaurantsPriceRange2\":\"2\",\"HasTV\":\"True\",\"RestaurantsAttire\":\"u'casual'\",\"RestaurantsTakeOut\":\"True\",\"OutdoorSeating\":\"False\",\"RestaurantsDelivery\":\"True\",\"RestaurantsReservations\":\"False\",\"NoiseLevel\":\"u'quiet'\",\"Caters\":\"False\",\"RestaurantsGoodForGroups\":\"True\",\"BusinessAcceptsCreditCards\":\"True\",\"Alcohol\":\"u'none'\"}","categories":"Restaurants, Thai, Vietnamese, Chinese","hours":"{\"Monday\":\"11:30-21:30\",\"Tuesday\":\"11:30-21:30\",\"Wednesday\":\"11:30-21:30\",\"Thursday\":\"11:30-21:30\",\"Friday\":\"11:30-22:0\",\"Saturday\":\"11:30-22:0\",\"Sunday\":\"11:30-20:30\"}"},{"business_id":"7JnAT0YydHbR2ZijGWTK6w","name":"Giuseppe's Tailor Shop","address":"1911 Susquehanna Rd","city":"Abington","state":"PA","postal_code":"19001","latitude":40.115,"longitude":-75.1222,"stars":3.5,"review_count":14,"is_open":1,"attributes":"{\"BusinessAcceptsCreditCards\":\"True\",\"ByAppointmentOnly\":\"False\"}","categories":"Local Services, Sewing & Alterations","hours":"{\"Monday\":\"8:0-18:0\",\"Tuesday\":\"8:0-18:0\",\"Wednesday\":\"8:0-18:0\",\"Thursday\":\"8:0-18:0\",\"Friday\":\"8:0-18:0\",\"Saturday\":\"8:0-16:0\"}"},{"business_id":"Uvh7cAuI4dFso3HKT2zHyw","name":"Goodfellas Pizzeria","address":"1717 Old York Rd","city":"Abington","state":"PA","postal_code":"19001","latitude":40.1321,"longitude":-75.1155,"stars":3.0,"review_count":15,"is_open":0,"attributes":"{\"Alcohol\":\"u'none'\",\"GoodForKids\":\"True\",\"RestaurantsDelivery\":\"True\",\"BusinessAcceptsBitcoin\":\"False\",\"RestaurantsTakeOut\":\"True\",\"OutdoorSeating\":\"False\",\"RestaurantsReservations\":\"False\",\"BikeParking\":\"True\",\"BusinessParking\":\"{'garage': False, 'street': False, 'validated': False, 'lot': True, 'valet': False}\",\"RestaurantsGoodForGroups\":\"True\",\"NoiseLevel\":\"u'quiet'\",\"Caters\":\"True\",\"WiFi\":\"u'no'\",\"BusinessAcceptsCreditCards\":\"True\",\"RestaurantsPriceRange2\":\"1\",\"Ambience\":\"{'romantic': False, 'intimate': False, 'classy': False, 'hipster': False, 'divey': False, 'touristy': False, 'trendy': False, 'upscale': False, 'casual': False}\",\"HasTV\":\"False\",\"RestaurantsAttire\":\"'casual'\",\"GoodForMeal\":\"{'dessert': False, 'latenight': False, 'lunch': True, 'dinner': False, 'brunch': False, 'breakfast': False}\"}","categories":"Caterers, Event Planning & Services, Restaurants, Food, Pizza, Halal","hours":"{\"Monday\":\"11:0-22:0\",\"Tuesday\":\"11:0-22:0\",\"Wednesday\":\"11:0-22:0\",\"Thursday\":\"11:0-22:0\",\"Friday\":\"11:0-23:0\",\"Saturday\":\"11:0-23:0\",\"Sunday\":\"11:0-22:0\"}"},{"business_id":"Uuj4pdzGH6OonbjzLfWQdw","name":"Patient First - Abington","address":"938 Old York Rd","city":"Abington","state":"PA","postal_code":"19001","latitude":40.1085,"longitude":-75.1236,"stars":3.0,"review_count":27,"is_open":1,"attributes":"{\"AcceptsInsurance\":\"True\",\"ByAppointmentOnly\":\"False\",\"BusinessAcceptsCreditCards\":\"True\"}","categories":"Diagnostic Services, Urgent Care, Medical Centers, Health & Medical, Diagnostic Imaging","hours":"{\"Monday\":\"8:0-22:0\",\"Tuesday\":\"8:0-22:0\",\"Wednesday\":\"8:0-22:0\",\"Thursday\":\"8:0-22:0\",\"Friday\":\"8:0-22:0\",\"Saturday\":\"8:0-22:0\",\"Sunday\":\"8:0-22:0\"}"},{"business_id":"X62ejibJII2WlVIA4KKKaA","name":"Firestone Complete Auto Care","address":"1475 Old York Rd","city":"Abington","state":"PA","postal_code":"19001","latitude":40.1243,"longitude":-75.1172,"stars":2.5,"review_count":24,"is_open":1,"attributes":"{\"BusinessAcceptsCreditCards\":\"True\"}","categories":"Auto Repair, Auto Parts & Supplies, Automotive, Oil Change Stations, Tires","hours":"{\"Monday\":\"0:0-0:0\",\"Tuesday\":\"7:0-19:0\",\"Wednesday\":\"7:0-19:0\",\"Thursday\":\"7:0-19:0\",\"Friday\":\"7:0-16:0\",\"Saturday\":\"7:0-18:0\",\"Sunday\":\"9:0-17:0\"}"},{"business_id":"auP_0xx_S9nCd3Bnt1hwMw","name":"Penn State Abington","address":"1600 Woodland Rd","city":"Abington","state":"PA","postal_code":"19001","latitude":40.1155,"longitude":-75.1103,"stars":4.5,"review_count":7,"is_open":1,"attributes":"NULL","categories":"Education, Colleges & Universities","hours":"NULL"},{"business_id":"ntsN09UfQSlRWO37guMKMw","name":"Riviera D'Italia","address":"1185 Easton Rd","city":"Abington","state":"PA","postal_code":"19001","latitude":40.1246,"longitude":-75.1328,"stars":4.0,"review_count":50,"is_open":1,"attributes":"{\"NoiseLevel\":\"u'average'\",\"ByAppointmentOnly\":\"False\",\"RestaurantsTableService\":\"True\",\"RestaurantsReservations\":\"True\",\"RestaurantsAttire\":\"'casual'\",\"WheelchairAccessible\":\"True\",\"Ambience\":\"{'touristy': False, 'hipster': False, 'romantic': False, 'divey': False, 'intimate': False, 'trendy': False, 'upscale': False, 'classy': True, 'casual': False}\",\"RestaurantsGoodForGroups\":\"True\",\"OutdoorSeating\":\"False\",\"RestaurantsPriceRange2\":\"2\",\"Caters\":\"True\",\"HasTV\":\"True\",\"GoodForKids\":\"True\",\"GoodForMeal\":\"{'dessert': False, 'latenight': False, 'lunch': True, 'dinner': False, 'brunch': False, 'breakfast': False}\",\"BusinessParking\":\"{u'valet': False, u'garage': None, u'street': None, u'lot': None, u'validated': False}\",\"WiFi\":\"u'free'\",\"RestaurantsDelivery\":\"True\",\"BikeParking\":\"True\",\"BusinessAcceptsCreditCards\":\"True\",\"RestaurantsTakeOut\":\"True\"}","categories":"Italian, Pizza, Restaurants","hours":"{\"Monday\":\"11:0-22:0\",\"Tuesday\":\"11:0-22:0\",\"Wednesday\":\"11:0-22:0\",\"Thursday\":\"11:0-22:0\",\"Friday\":\"11:0-23:0\",\"Saturday\":\"0:0-23:0\",\"Sunday\":\"11:30-22:0\"}"},{"business_id":"Thavh5iKWC0KYhYp5dEWeQ","name":"TJ Maxx","address":"1495 Old York Rd","city":"Abington","state":"PA","postal_code":"19001","latitude":40.1253,"longitude":-75.1157,"stars":2.5,"review_count":20,"is_open":1,"attributes":"{\"RestaurantsPriceRange2\":\"1\",\"BusinessAcceptsCreditCards\":\"True\",\"BusinessParking\":\"{'garage': False, 'street': False, 'validated': False, 'lot': True, 'valet': False}\",\"BikeParking\":\"False\"}","categories":"Department Stores, Shopping, Fashion","hours":"NULL"},{"business_id":"8rcVX1kacQQTocPTgBQFFA","name":"Abington Free Library","address":"1030 Old York Rd","city":"Abington","state":"PA","postal_code":"19001","latitude":40.1127,"longitude":-75.1236,"stars":4.0,"review_count":8,"is_open":1,"attributes":"{\"WiFi\":\"'free'\"}","categories":"Public Services & Government, Libraries","hours":"{\"Monday\":\"0:0-0:0\",\"Tuesday\":\"9:30-21:0\",\"Wednesday\":\"9:30-21:0\",\"Thursday\":\"9:30-21:0\",\"Friday\":\"9:30-17:0\",\"Saturday\":\"9:30-17:0\",\"Sunday\":\"13:0-17:0\"}"},{"business_id":"v3jhAHsVHbte9k203-4KjQ","name":"Abington Animal Hospital","address":"1626 Old York Rd","city":"Abington","state":"PA","postal_code":"19001","latitude":40.1303,"longitude":-75.1168,"stars":2.0,"review_count":5,"is_open":1,"attributes":"NULL","categories":"Pets, Veterinarians, Pet Services","hours":"{\"Monday\":\"9:0-19:30\",\"Tuesday\":\"9:0-19:30\",\"Wednesday\":\"9:0-19:30\",\"Thursday\":\"9:0-19:30\",\"Friday\":\"9:30-16:30\",\"Saturday\":\"9:30-16:30\"}"},{"business_id":"APZH0Kldo6VdiYk8An35TQ","name":"Ink Boss Tattoos","address":"1130 Easton Rd","city":"Abington","state":"PA","postal_code":"19001","latitude":40.1224,"longitude":-75.1329,"stars":4.5,"review_count":10,"is_open":1,"attributes":"{\"ByAppointmentOnly\":\"False\",\"BusinessParking\":\"{'garage': False, 'street': False, 'validated': False, 'lot': False, 'valet': False}\",\"RestaurantsPriceRange2\":\"3\",\"WheelchairAccessible\":\"True\",\"BusinessAcceptsCreditCards\":\"True\",\"BikeParking\":\"True\",\"WiFi\":\"u'free'\"}","categories":"Tattoo, Beauty & Spas","hours":"{\"Monday\":\"0:0-0:0\",\"Tuesday\":\"12:0-21:0\",\"Wednesday\":\"12:0-21:0\",\"Thursday\":\"12:0-21:0\",\"Friday\":\"12:0-21:0\",\"Saturday\":\"12:0-21:0\",\"Sunday\":\"12:0-21:0\"}"},{"business_id":"kf49HOXl-FxVZYqHJsZNtw","name":"Abington Auto Tops","address":"1518 Easton Rd, Unit 6","city":"Abington","state":"PA","postal_code":"19001","latitude":40.1318,"longitude":-75.1274,"stars":4.0,"review_count":5,"is_open":1,"attributes":"{\"BusinessAcceptsCreditCards\":\"True\"}","categories":"Auto Customization, Auto Upholstery, Automotive","hours":"{\"Monday\":\"9:0-17:0\",\"Tuesday\":\"9:0-17:0\",\"Wednesday\":\"9:0-17:0\",\"Thursday\":\"9:0-17:0\",\"Friday\":\"9:0-17:0\",\"Saturday\":\"9:0-12:0\"}"},{"business_id":"CJVdzc54avW4ZFiB3tTrkg","name":"South Sea Thai Kitchen","address":"1717 Old York Rd","city":"Abington","state":"PA","postal_code":"19001","latitude":40.1321,"longitude":-75.1155,"stars":4.5,"review_count":33,"is_open":1,"attributes":"{\"BusinessParking\":\"{'garage': False, 'street': False, 'validated': False, 'lot': True, 'valet': False}\",\"RestaurantsDelivery\":\"None\",\"RestaurantsTakeOut\":\"True\"}","categories":"Thai, Restaurants, Pan Asian, Asian Fusion","hours":"{\"Tuesday\":\"11:30-21:0\",\"Wednesday\":\"11:30-21:0\",\"Thursday\":\"11:30-21:0\",\"Friday\":\"11:30-21:0\",\"Saturday\":\"11:30-21:0\",\"Sunday\":\"11:30-21:0\"}"},{"business_id":"HNimzVqqW3pxF5CMd-WixA","name":"Belle Amie Hair Designs","address":"233 N Keswick Ave","city":"Abington","state":"PA","postal_code":"19038","latitude":40.1046,"longitude":-75.1468,"stars":5.0,"review_count":6,"is_open":1,"attributes":"{\"BusinessParking\":\"{'garage': False, 'street': True, 'validated': False, 'lot': False, 'valet': False}\",\"BusinessAcceptsCreditCards\":\"True\"}","categories":"Hair Salons, Beauty & Spas","hours":"{\"Tuesday\":\"10:0-19:0\",\"Wednesday\":\"10:0-20:0\",\"Thursday\":\"10:0-20:0\",\"Friday\":\"10:0-17:0\",\"Saturday\":\"9:0-15:0\"}"},{"business_id":"-lM78iJEh0GH5MkgE-_u5g","name":"Jimmy John's","address":"1140 Old York Rd","city":"Abington","state":"PA","postal_code":"19001","latitude":40.116,"longitude":-75.1214,"stars":3.0,"review_count":17,"is_open":0,"attributes":"{\"BusinessAcceptsCreditCards\":\"True\",\"RestaurantsPriceRange2\":\"1\",\"RestaurantsGoodForGroups\":\"True\",\"RestaurantsTakeOut\":\"True\",\"Ambience\":\"{'touristy': False, 'hipster': False, 'romantic': False, 'divey': False, 'intimate': False, 'trendy': False, 'upscale': False, 'classy': True, 'casual': False}\",\"GoodForKids\":\"True\",\"RestaurantsDelivery\":\"True\",\"RestaurantsReservations\":\"False\",\"RestaurantsAttire\":\"'casual'\",\"GoodForMeal\":\"{'dessert': False, 'latenight': False, 'lunch': False, 'dinner': False, 'brunch': False, 'breakfast': False}\",\"RestaurantsTableService\":\"False\",\"OutdoorSeating\":\"True\"}","categories":"Sandwiches, Restaurants","hours":"{\"Monday\":\"11:0-21:0\",\"Tuesday\":\"11:0-21:0\",\"Wednesday\":\"11:0-21:0\",\"Thursday\":\"11:0-21:0\",\"Friday\":\"11:0-21:0\",\"Saturday\":\"11:0-21:0\",\"Sunday\":\"11:0-21:0\"}"},{"business_id":"t2FKLTPNOrDLMS39RLk9Tw","name":"Advanced Dental Esthetics","address":"1130 Old York Rd","city":"Abington","state":"PA","postal_code":"19001","latitude":40.1156,"longitude":-75.1213,"stars":3.0,"review_count":21,"is_open":1,"attributes":"{\"ByAppointmentOnly\":\"True\",\"AcceptsInsurance\":\"True\",\"BusinessAcceptsCreditCards\":\"False\"}","categories":"Dentists, Cosmetic Dentists, Periodontists, Health & Medical, Orthodontists, General Dentistry","hours":"{\"Monday\":\"8:0-19:0\",\"Tuesday\":\"9:0-18:0\",\"Wednesday\":\"8:0-19:0\",\"Thursday\":\"9:0-18:0\",\"Friday\":\"8:0-14:0\",\"Saturday\":\"8:0-14:0\"}"},{"business_id":"lE_h3vkDR1qMDkQ_KYY2jw","name":"Elbow Room","address":"1352 Easton Rd","city":"Abington","state":"PA","postal_code":"19001","latitude":40.1286,"longitude":-75.1299,"stars":4.5,"review_count":6,"is_open":1,"attributes":"{\"BusinessAcceptsCreditCards\":\"False\",\"HasTV\":\"False\",\"OutdoorSeating\":\"False\",\"BusinessParking\":\"{'garage': False, 'street': True, 'validated': False, 'lot': False, 'valet': False}\",\"BusinessAcceptsBitcoin\":\"False\",\"WheelchairAccessible\":\"False\",\"Smoking\":\"u'no'\",\"Alcohol\":\"u'none'\",\"BikeParking\":\"False\",\"GoodForDancing\":\"True\",\"RestaurantsGoodForGroups\":\"True\",\"CoatCheck\":\"False\",\"DogsAllowed\":\"False\",\"HappyHour\":\"False\",\"RestaurantsPriceRange2\":\"1\",\"Ambience\":\"{'touristy': False, 'hipster': False, 'romantic': False, 'divey': True, 'intimate': None, 'trendy': False, 'upscale': False, 'classy': False, 'casual': None}\",\"WiFi\":\"u'free'\",\"BestNights\":\"{'monday': False, 'tuesday': False, 'friday': True, 'wednesday': False, 'thursday': True, 'sunday': False, 'saturday': True}\",\"NoiseLevel\":\"u'average'\",\"Music\":\"{'dj': False, 'background_music': False, 'no_music': False, 'jukebox': True, 'live': None, 'video': False, 'karaoke': None}\",\"RestaurantsReservations\":\"False\"}","categories":"Nightlife, Bars, Dive Bars","hours":"{\"Monday\":\"7:0-2:0\",\"Tuesday\":\"7:0-2:0\",\"Wednesday\":\"7:0-2:0\",\"Thursday\":\"7:0-2:0\",\"Friday\":\"7:0-2:0\",\"Saturday\":\"7:0-2:0\",\"Sunday\":\"7:0-2:0\"}"},{"business_id":"pe1uspK6xnVuVgLXFIjQlg","name":"Dunkin'","address":"1701 Old York Rd","city":"Abington","state":"PA","postal_code":"19001","latitude":40.1317,"longitude":-75.1155,"stars":2.0,"review_count":17,"is_open":1,"attributes":"{\"BusinessParking\":\"{'garage': False, 'street': False, 'validated': False, 'lot': False, 'valet': False}\",\"BusinessAcceptsCreditCards\":\"True\",\"BikeParking\":\"True\",\"WiFi\":\"'free'\",\"OutdoorSeating\":\"False\",\"DriveThru\":\"None\",\"RestaurantsPriceRange2\":\"1\",\"RestaurantsDelivery\":\"True\",\"RestaurantsTakeOut\":\"True\"}","categories":"Ice Cream & Frozen Yogurt, Donuts, Food, Coffee & Tea","hours":"{\"Monday\":\"0:0-0:0\",\"Tuesday\":\"0:0-0:0\",\"Wednesday\":\"0:0-0:0\",\"Thursday\":\"0:0-0:0\",\"Friday\":\"0:0-0:0\",\"Saturday\":\"0:0-0:0\",\"Sunday\":\"0:0-0:0\"}"},{"business_id":"VaHG9BwrSZ-oNv0mGsTgiQ","name":"First Watch","address":"1423 Old York Rd","city":"Abington","state":"PA","postal_code":"19001","latitude":40.123,"longitude":-75.1162,"stars":3.5,"review_count":153,"is_open":1,"attributes":"{\"WiFi\":\"u'free'\",\"GoodForKids\":\"True\",\"NoiseLevel\":\"u'average'\",\"GoodForMeal\":\"{'dessert': None, 'latenight': None, 'lunch': None, 'dinner': None, 'brunch': True, 'breakfast': True}\",\"RestaurantsPriceRange2\":\"2\",\"HasTV\":\"True\",\"Alcohol\":\"u'none'\",\"BusinessParking\":\"{'garage': False, 'street': None, 'validated': False, 'lot': None, 'valet': False}\",\"RestaurantsTableService\":\"True\",\"BusinessAcceptsCreditCards\":\"True\",\"OutdoorSeating\":\"False\",\"Ambience\":\"{u'divey': False, u'hipster': None, u'casual': True, u'touristy': False, u'trendy': True, u'intimate': False, u'romantic': False, u'classy': None, u'upscale': False}\",\"RestaurantsGoodForGroups\":\"True\",\"HappyHour\":\"False\",\"RestaurantsReservations\":\"None\",\"RestaurantsTakeOut\":\"True\",\"DogsAllowed\":\"False\",\"RestaurantsAttire\":\"u'casual'\",\"RestaurantsDelivery\":\"True\"}","categories":"American (Traditional), American (New), Cafes, Restaurants, Breakfast & Brunch","hours":"{\"Monday\":\"0:0-0:0\",\"Tuesday\":\"7:0-14:30\",\"Wednesday\":\"7:0-14:30\",\"Thursday\":\"7:0-14:30\",\"Friday\":\"7:0-14:30\",\"Saturday\":\"7:0-14:30\",\"Sunday\":\"7:0-14:30\"}"},{"business_id":"wRiJbVNZUkVxt2FtBW9U4g","name":"Shechtman Tree Care","address":"1722 Rockwell Rd","city":"Abington","state":"PA","postal_code":"19001","latitude":40.1327,"longitude":-75.1182,"stars":4.5,"review_count":12,"is_open":1,"attributes":"{\"BusinessAcceptsCreditCards\":\"True\",\"ByAppointmentOnly\":\"False\"}","categories":"Tree Services, Home Services","hours":"{\"Monday\":\"9:0-17:0\",\"Tuesday\":\"9:0-17:0\",\"Wednesday\":\"9:0-17:0\",\"Thursday\":\"9:0-17:0\",\"Friday\":\"9:0-17:0\"}"},{"business_id":"RCpFAdBZJM9ucpVMcYXiVA","name":"Gummlai Thai","address":"1170 Easton Rd","city":"Abington","state":"PA","postal_code":"19001","latitude":40.1237,"longitude":-75.1331,"stars":4.5,"review_count":168,"is_open":1,"attributes":"{\"RestaurantsTakeOut\":\"True\",\"BusinessAcceptsCreditCards\":\"True\",\"BikeParking\":\"False\",\"WiFi\":\"u'no'\",\"RestaurantsAttire\":\"u'casual'\",\"RestaurantsPriceRange2\":\"2\",\"GoodForKids\":\"True\",\"NoiseLevel\":\"u'quiet'\",\"RestaurantsReservations\":\"True\",\"HasTV\":\"False\",\"BusinessParking\":\"{'garage': False, 'street': True, 'validated': False, 'lot': True, 'valet': False}\",\"RestaurantsDelivery\":\"False\",\"RestaurantsGoodForGroups\":\"True\",\"Alcohol\":\"u'none'\",\"DogsAllowed\":\"False\",\"RestaurantsTableService\":\"True\",\"Caters\":\"True\",\"Ambience\":\"{'touristy': False, 'hipster': False, 'romantic': None, 'divey': False, 'intimate': True, 'trendy': False, 'upscale': False, 'classy': False, 'casual': True}\",\"GoodForMeal\":\"{'dessert': None, 'latenight': False, 'lunch': True, 'dinner': True, 'brunch': False, 'breakfast': False}\",\"OutdoorSeating\":\"False\"}","categories":"Restaurants, Soup, Thai, Sushi Bars","hours":"{\"Monday\":\"0:0-0:0\",\"Tuesday\":\"16:0-20:0\",\"Wednesday\":\"16:0-20:0\",\"Thursday\":\"16:0-20:0\",\"Friday\":\"16:0-21:0\",\"Saturday\":\"16:0-21:0\"}"},{"business_id":"np56UXojrRQOaBvBHoLHkw","name":"Starbucks","address":"789 Huntingdon Pike","city":"Abington","state":"PA","postal_code":"19006","latitude":40.0887,"longitude":-75.0928,"stars":3.5,"review_count":25,"is_open":1,"attributes":"{\"BusinessAcceptsCreditCards\":\"True\",\"RestaurantsTakeOut\":\"True\",\"Caters\":\"False\",\"OutdoorSeating\":\"True\",\"RestaurantsPriceRange2\":\"2\",\"BusinessParking\":\"{'garage': False, 'street': True, 'validated': False, 'lot': True, 'valet': False}\",\"WiFi\":\"'free'\",\"BikeParking\":\"True\"}","categories":"Food, Coffee & Tea","hours":"{\"Monday\":\"5:30-21:0\",\"Tuesday\":\"5:30-21:0\",\"Wednesday\":\"5:30-21:0\",\"Thursday\":\"5:30-21:0\",\"Friday\":\"5:30-21:0\",\"Saturday\":\"6:0-21:0\",\"Sunday\":\"6:0-21:0\"}"},{"business_id":"lyfBdvBylZJbJX8IQj8HgQ","name":"In Bloom Flowers & Gifts","address":"1128 Old York Rd, Unit B","city":"Abington","state":"PA","postal_code":"19001","latitude":40.1157,"longitude":-75.122,"stars":3.5,"review_count":5,"is_open":1,"attributes":"{\"BusinessAcceptsCreditCards\":\"True\",\"ByAppointmentOnly\":\"False\",\"BusinessParking\":\"{'garage': False, 'street': False, 'validated': False, 'lot': True, 'valet': False}\",\"RestaurantsPriceRange2\":\"2\",\"BikeParking\":\"True\",\"RestaurantsDelivery\":\"None\"}","categories":"Shopping, Event Planning & Services, Flowers & Gifts, Florists, Floral Designers, Wedding Planning, Balloon Services","hours":"{\"Monday\":\"9:30-16:0\",\"Tuesday\":\"9:30-17:0\",\"Wednesday\":\"9:30-16:0\",\"Thursday\":\"9:30-17:0\",\"Friday\":\"9:30-17:0\",\"Saturday\":\"9:30-14:0\"}"},{"business_id":"mQZpnPY7o2u3I90rbzZNQg","name":"Jefferson Abington Hospital","address":"1200 Old York Rd","city":"Abington","state":"PA","postal_code":"19001","latitude":40.1191,"longitude":-75.1199,"stars":2.0,"review_count":84,"is_open":1,"attributes":"{\"ByAppointmentOnly\":\"False\",\"AcceptsInsurance\":\"True\",\"BusinessAcceptsCreditCards\":\"True\"}","categories":"Health & Medical, Internal Medicine, Hospitals, Surgeons, Doctors, Osteopathic Physicians","hours":"{\"Monday\":\"8:0-17:0\",\"Tuesday\":\"8:0-17:0\",\"Wednesday\":\"8:0-17:0\",\"Thursday\":\"8:0-17:0\",\"Friday\":\"8:0-17:0\",\"Saturday\":\"8:0-17:0\",\"Sunday\":\"8:0-17:0\"}"},{"business_id":"2vUErjw9pnsSwR5fGkY-Zw","name":"Abington Neurological Associates","address":"1151 Old York Road, Ste 200","city":"Abington","state":"PA","postal_code":"19001","latitude":40.1162,"longitude":-75.1206,"stars":1.5,"review_count":7,"is_open":1,"attributes":"{\"BusinessAcceptsCreditCards\":\"True\",\"AcceptsInsurance\":\"True\",\"WiFi\":\"u'free'\"}","categories":"Neurologist, Health & Medical, Neurotologists, Doctors","hours":"{\"Monday\":\"0:0-0:0\",\"Tuesday\":\"8:0-17:0\",\"Wednesday\":\"8:0-17:0\",\"Thursday\":\"8:0-17:0\",\"Friday\":\"8:0-17:0\"}"},{"business_id":"WBUBIz9PsqTsJxRjJmoR1w","name":"Wink Optical","address":"1151 Old York Rd, Ste 103","city":"Abington","state":"PA","postal_code":"19001","latitude":40.1162,"longitude":-75.1206,"stars":3.5,"review_count":7,"is_open":1,"attributes":"{\"RestaurantsPriceRange2\":\"3\",\"BusinessParking\":\"{'garage': False, 'street': False, 'validated': False, 'lot': True, 'valet': False}\",\"WiFi\":\"u'free'\",\"WheelchairAccessible\":\"True\",\"BusinessAcceptsCreditCards\":\"True\",\"AcceptsInsurance\":\"True\"}","categories":"Optometrists, Shopping, Health & Medical, Eyewear & Opticians","hours":"{\"Monday\":\"0:0-0:0\",\"Tuesday\":\"11:0-19:0\",\"Wednesday\":\"10:0-19:0\",\"Thursday\":\"9:0-13:0\",\"Friday\":\"9:30-17:0\",\"Saturday\":\"9:0-15:0\"}"},{"business_id":"Gs86IB67sCYAhsdkD5Am6g","name":"Frosty Caps Inc","address":"1745 Old York Rd","city":"Abington","state":"PA","postal_code":"19001","latitude":40.1328,"longitude":-75.1152,"stars":4.5,"review_count":12,"is_open":1,"attributes":"{\"BusinessAcceptsCreditCards\":\"True\",\"RestaurantsPriceRange2\":\"2\",\"BusinessParking\":\"{'garage': False, 'street': False, 'validated': False, 'lot': True, 'valet': False}\"}","categories":"Food, Beer, Wine & Spirits","hours":"{\"Monday\":\"10:0-20:0\",\"Tuesday\":\"10:0-20:0\",\"Wednesday\":\"10:0-20:0\",\"Thursday\":\"10:0-20:0\",\"Friday\":\"10:0-21:0\",\"Saturday\":\"9:0-21:0\",\"Sunday\":\"11:0-17:0\"}"},{"business_id":"JbNgfr60iyvM3CJWgyqXkw","name":"Tom & Sons Auto Repair","address":"1945 Old York Rd","city":"Abington","state":"PA","postal_code":"19001","latitude":40.1384,"longitude":-75.1125,"stars":5.0,"review_count":49,"is_open":1,"attributes":"{\"BusinessAcceptsCreditCards\":\"True\",\"WiFi\":\"u'free'\"}","categories":"Tires, Oil Change Stations, Car Stereo Installation, Car Inspectors, Transmission Repair, Automotive, Auto Repair, Towing","hours":"{\"Monday\":\"0:0-0:0\",\"Tuesday\":\"8:0-17:0\",\"Wednesday\":\"8:0-17:0\",\"Thursday\":\"8:0-17:0\",\"Friday\":\"8:0-17:0\"}"},{"business_id":"Or9gOp-Fx6nidqH3fi-Q7g","name":"Quallet HVAC","address":"1410 Saint Charles Pl","city":"Abington","state":"PA","postal_code":"19001","latitude":40.1337,"longitude":-75.1356,"stars":4.0,"review_count":20,"is_open":1,"attributes":"{\"ByAppointmentOnly\":\"False\",\"BusinessAcceptsCreditCards\":\"True\"}","categories":"Plumbing, Heating & Air Conditioning\/HVAC, Home Services","hours":"{\"Monday\":\"0:0-0:0\",\"Tuesday\":\"7:0-22:0\",\"Wednesday\":\"7:0-22:0\",\"Thursday\":\"7:0-22:0\",\"Friday\":\"7:0-22:0\",\"Saturday\":\"7:0-22:0\",\"Sunday\":\"7:0-22:0\"}"},{"business_id":"M2ffQ7_fv-XRnwYr7h4zZw","name":"Steak and Hoagie Factory","address":"1749 Old York Rd","city":"Abington","state":"PA","postal_code":"19001","latitude":40.1329,"longitude":-75.1151,"stars":3.5,"review_count":31,"is_open":1,"attributes":"{\"RestaurantsGoodForGroups\":\"True\",\"WiFi\":\"u'no'\",\"RestaurantsAttire\":\"u'casual'\",\"RestaurantsPriceRange2\":\"1\",\"Caters\":\"True\",\"HasTV\":\"True\",\"BusinessAcceptsCreditCards\":\"True\",\"BusinessParking\":\"{'garage': False, 'street': False, 'validated': False, 'lot': True, 'valet': False}\",\"BikeParking\":\"True\",\"RestaurantsReservations\":\"False\",\"GoodForKids\":\"True\",\"NoiseLevel\":\"u'average'\",\"RestaurantsTakeOut\":\"True\",\"HappyHour\":\"False\",\"GoodForMeal\":\"{'dessert': False, 'latenight': False, 'lunch': True, 'dinner': True, 'brunch': False, 'breakfast': False}\",\"OutdoorSeating\":\"True\",\"Ambience\":\"{'touristy': False, 'hipster': False, 'romantic': False, 'divey': None, 'intimate': False, 'trendy': False, 'upscale': False, 'classy': False, 'casual': None}\",\"Alcohol\":\"u'none'\",\"RestaurantsDelivery\":\"True\"}","categories":"Burgers, Restaurants, Steakhouses, American (New), Cheesesteaks, Sandwiches","hours":"{\"Monday\":\"9:0-23:0\",\"Tuesday\":\"9:0-23:0\",\"Wednesday\":\"9:0-23:0\",\"Thursday\":\"9:0-23:0\",\"Friday\":\"9:0-0:0\",\"Saturday\":\"9:0-0:0\",\"Sunday\":\"9:0-23:0\"}"},{"business_id":"jUyoND2GoaRRVS_t_HN6SQ","name":"Timber Grill","address":"1301 Old York Rd","city":"Abington","state":"PA","postal_code":"19001","latitude":40.1191,"longitude":-75.1188,"stars":3.0,"review_count":35,"is_open":0,"attributes":"{\"RestaurantsAttire\":\"u'casual'\",\"GoodForKids\":\"True\",\"BusinessAcceptsCreditCards\":\"True\",\"RestaurantsDelivery\":\"False\",\"OutdoorSeating\":\"False\",\"Ambience\":\"{'romantic': False, 'intimate': True, 'touristy': False, 'hipster': False, 'divey': False, 'classy': False, 'trendy': False, 'upscale': False, 'casual': True}\",\"HasTV\":\"True\",\"RestaurantsReservations\":\"True\",\"RestaurantsGoodForGroups\":\"True\",\"RestaurantsPriceRange2\":\"2\",\"NoiseLevel\":\"u'average'\",\"Caters\":\"True\",\"Alcohol\":\"u'full_bar'\",\"RestaurantsTakeOut\":\"True\",\"WiFi\":\"u'no'\",\"BusinessParking\":\"{'garage': False, 'street': False, 'validated': False, 'lot': True, 'valet': False}\"}","categories":"American (New), Restaurants","hours":"NULL"},{"business_id":"p9KLbySL6xTJIvDIuxoGQg","name":"Penelope's Hair & Nail Design","address":"1621 Old York Rd","city":"Abington","state":"PA","postal_code":"19001","latitude":40.1299,"longitude":-75.1161,"stars":4.5,"review_count":8,"is_open":0,"attributes":"{\"RestaurantsPriceRange2\":\"2\",\"WheelchairAccessible\":\"True\",\"BikeParking\":\"True\",\"GoodForKids\":\"True\",\"ByAppointmentOnly\":\"True\",\"BusinessParking\":\"{'garage': False, 'street': False, 'validated': False, 'lot': False, 'valet': False}\",\"BusinessAcceptsCreditCards\":\"True\"}","categories":"Hair Salons, Nail Salons, Beauty & Spas, Makeup Artists","hours":"{\"Tuesday\":\"9:0-19:0\",\"Wednesday\":\"9:0-19:0\",\"Thursday\":\"9:0-19:0\",\"Friday\":\"9:0-19:0\",\"Saturday\":\"7:0-19:0\",\"Sunday\":\"9:0-16:0\"}"},{"business_id":"YxUZlqeTjGx564XHU30gZQ","name":"Hollywood Nails","address":"1190 Easton Rd","city":"Abington","state":"PA","postal_code":"19001","latitude":40.1243,"longitude":-75.1333,"stars":3.0,"review_count":11,"is_open":1,"attributes":"{\"ByAppointmentOnly\":\"False\",\"RestaurantsPriceRange2\":\"3\",\"BusinessAcceptsCreditCards\":\"True\",\"BusinessParking\":\"{'garage': False, 'street': False, 'validated': False, 'lot': True, 'valet': False}\",\"BikeParking\":\"True\"}","categories":"Beauty & Spas, Nail Salons","hours":"{\"Monday\":\"10:0-19:30\",\"Tuesday\":\"10:0-19:30\",\"Wednesday\":\"10:0-19:30\",\"Thursday\":\"10:0-19:30\",\"Friday\":\"9:30-19:30\",\"Saturday\":\"9:30-18:30\",\"Sunday\":\"10:30-16:30\"}"},{"business_id":"trL7UR2euW_K5rvR1pGeMA","name":"Throw Back Thrift","address":"1344 Easton Rd","city":"Abington","state":"PA","postal_code":"19001","latitude":40.1284,"longitude":-75.1302,"stars":4.0,"review_count":7,"is_open":1,"attributes":"{\"WheelchairAccessible\":\"True\",\"RestaurantsPriceRange2\":\"2\",\"BusinessParking\":\"{'garage': False, 'street': False, 'validated': False, 'lot': False, 'valet': False}\",\"ByAppointmentOnly\":\"False\",\"BikeParking\":\"True\",\"BusinessAcceptsCreditCards\":\"True\"}","categories":"Thrift Stores, Women's Clothing, Shopping, Used, Vintage & Consignment, Fashion","hours":"{\"Monday\":\"11:0-17:0\",\"Tuesday\":\"11:0-17:0\",\"Wednesday\":\"11:0-17:0\",\"Thursday\":\"11:0-17:0\",\"Friday\":\"11:0-17:0\",\"Saturday\":\"11:0-17:0\"}"},{"business_id":"90EhMSLJUzjoyKmpRnYf-Q","name":"Mobay Jamaican Restaurant","address":"966 Old York Rd","city":"Abington","state":"PA","postal_code":"19001","latitude":40.1094,"longitude":-75.1237,"stars":4.5,"review_count":30,"is_open":0,"attributes":"{\"Ambience\":\"{'touristy': False, 'hipster': False, 'romantic': False, 'divey': False, 'intimate': False, 'trendy': False, 'upscale': False, 'classy': False, 'casual': False}\",\"GoodForKids\":\"True\",\"RestaurantsGoodForGroups\":\"True\",\"HasTV\":\"True\",\"RestaurantsPriceRange2\":\"2\",\"GoodForMeal\":\"{'dessert': False, 'latenight': False, 'lunch': False, 'dinner': False, 'brunch': False, 'breakfast': False}\",\"BusinessAcceptsCreditCards\":\"True\",\"BusinessParking\":\"{'garage': False, 'street': False, 'validated': False, 'lot': False, 'valet': False}\",\"RestaurantsTakeOut\":\"True\",\"RestaurantsDelivery\":\"None\",\"RestaurantsReservations\":\"False\"}","categories":"Restaurants, Caribbean","hours":"{\"Monday\":\"11:0-21:0\",\"Tuesday\":\"11:0-21:0\",\"Wednesday\":\"11:0-21:0\",\"Thursday\":\"11:0-21:0\",\"Friday\":\"11:0-21:30\",\"Saturday\":\"16:0-21:30\",\"Sunday\":\"11:0-19:0\"}"},{"business_id":"oLaC9Drv8hT7BMNDtCmnNQ","name":"Heaven's Best Day Spa","address":"1186 Easton Rd","city":"Abington","state":"PA","postal_code":"19001","latitude":40.1243,"longitude":-75.1331,"stars":4.0,"review_count":27,"is_open":1,"attributes":"{\"BusinessParking\":\"{'garage': False, 'street': True, 'validated': False, 'lot': False, 'valet': False}\",\"BusinessAcceptsBitcoin\":\"False\",\"BikeParking\":\"True\",\"BusinessAcceptsCreditCards\":\"True\",\"RestaurantsPriceRange2\":\"2\",\"WheelchairAccessible\":\"True\",\"WiFi\":\"u'free'\",\"ByAppointmentOnly\":\"False\",\"NoiseLevel\":\"u'quiet'\",\"AcceptsInsurance\":\"False\"}","categories":"Massage, Reflexology, Health & Medical, Beauty & Spas, Day Spas, Massage Therapy","hours":"{\"Monday\":\"10:0-21:0\",\"Tuesday\":\"10:0-21:0\",\"Wednesday\":\"10:0-21:0\",\"Thursday\":\"10:0-21:0\",\"Friday\":\"10:0-21:0\",\"Saturday\":\"10:0-21:0\",\"Sunday\":\"11:0-20:0\"}"},{"business_id":"C2vKa-eZFVBrfFGYXxvXFw","name":"Senor Salsa","address":"1301 Old York Rd","city":"Abington","state":"PA","postal_code":"19001","latitude":40.119,"longitude":-75.1189,"stars":3.0,"review_count":339,"is_open":1,"attributes":"{\"RestaurantsReservations\":\"True\",\"RestaurantsTakeOut\":\"True\",\"BikeParking\":\"False\",\"RestaurantsGoodForGroups\":\"True\",\"RestaurantsTableService\":\"True\",\"WiFi\":\"'no'\",\"Alcohol\":\"'full_bar'\",\"BusinessParking\":\"{'garage': False, 'street': False, 'validated': False, 'lot': True, 'valet': False}\",\"BusinessAcceptsCreditCards\":\"True\",\"HasTV\":\"True\",\"RestaurantsAttire\":\"u'casual'\",\"Ambience\":\"{'romantic': False, 'intimate': False, 'classy': False, 'hipster': False, 'divey': False, 'touristy': False, 'trendy': False, 'upscale': False, 'casual': True}\",\"NoiseLevel\":\"u'average'\",\"RestaurantsPriceRange2\":\"2\",\"Caters\":\"True\",\"DogsAllowed\":\"False\",\"WheelchairAccessible\":\"True\",\"HappyHour\":\"True\",\"GoodForKids\":\"True\",\"OutdoorSeating\":\"True\",\"RestaurantsDelivery\":\"True\",\"GoodForMeal\":\"{'dessert': False, 'latenight': False, 'lunch': True, 'dinner': True, 'brunch': False, 'breakfast': False}\"}","categories":"Seafood, Restaurants, Mexican, American (Traditional)","hours":"{\"Monday\":\"0:0-0:0\",\"Tuesday\":\"11:0-22:0\",\"Wednesday\":\"11:0-22:0\",\"Thursday\":\"11:0-22:0\",\"Friday\":\"11:0-23:0\",\"Saturday\":\"11:0-23:0\",\"Sunday\":\"11:0-22:0\"}"},{"business_id":"-G-p49zYwol8Sw9GP931VQ","name":"Rita's Italian Ice","address":"1700 Old York Rd","city":"Abington","state":"PA","postal_code":"19001","latitude":40.1321,"longitude":-75.1162,"stars":2.0,"review_count":11,"is_open":1,"attributes":"{\"BikeParking\":\"True\",\"BusinessParking\":\"{'garage': False, 'street': True, 'validated': False, 'lot': True, 'valet': False}\",\"RestaurantsPriceRange2\":\"1\",\"WiFi\":\"u'no'\",\"BusinessAcceptsCreditCards\":\"True\",\"WheelchairAccessible\":\"True\",\"BusinessAcceptsBitcoin\":\"False\",\"RestaurantsTakeOut\":\"True\",\"DogsAllowed\":\"True\",\"Caters\":\"True\",\"RestaurantsDelivery\":\"True\"}","categories":"Shaved Ice, Food, Gelato, Ice Cream & Frozen Yogurt, Desserts","hours":"{\"Monday\":\"12:0-21:0\",\"Tuesday\":\"12:0-21:0\",\"Wednesday\":\"12:0-21:0\",\"Thursday\":\"12:0-21:0\",\"Friday\":\"12:0-21:0\",\"Saturday\":\"12:0-21:0\",\"Sunday\":\"12:0-21:0\"}"},{"business_id":"y-_fLghqwraIBw7HBLA80w","name":"Slom's Professional Uniforms","address":"1125 Old York Rd","city":"Abington","state":"PA","postal_code":"19001","latitude":40.1153,"longitude":-75.1211,"stars":2.5,"review_count":16,"is_open":1,"attributes":"NULL","categories":"Children's Clothing, Uniforms, Shopping, Fashion, Women's Clothing, Medical Supplies","hours":"{\"Monday\":\"10:0-18:0\",\"Tuesday\":\"10:0-18:0\",\"Wednesday\":\"10:0-18:0\",\"Thursday\":\"10:0-18:0\",\"Friday\":\"10:0-18:0\",\"Saturday\":\"10:0-18:0\"}"},{"business_id":"dN-5y6JeSNUGTPjjRrobGw","name":"Nail Studio","address":"1323 Easton Rd","city":"Abington","state":"PA","postal_code":"19001","latitude":40.1267,"longitude":-75.1308,"stars":2.5,"review_count":8,"is_open":1,"attributes":"{\"ByAppointmentOnly\":\"False\",\"BusinessParking\":\"{'garage': False, 'street': False, 'validated': False, 'lot': False, 'valet': False}\",\"BusinessAcceptsCreditCards\":\"True\",\"RestaurantsPriceRange2\":\"3\"}","categories":"Nail Salons, Beauty & Spas","hours":"{\"Monday\":\"0:0-0:0\",\"Tuesday\":\"9:30-19:30\",\"Wednesday\":\"9:30-19:30\",\"Thursday\":\"9:30-19:30\",\"Friday\":\"9:30-19:30\",\"Saturday\":\"9:0-18:30\",\"Sunday\":\"10:30-16:30\"}"},{"business_id":"cAuZbjMLflRq0eYG_T_Pfw","name":"Elite Florals","address":"1160 Bradfield Rd","city":"Abington","state":"PA","postal_code":"19001","latitude":40.1244,"longitude":-75.134,"stars":4.0,"review_count":5,"is_open":1,"attributes":"{\"BusinessAcceptsCreditCards\":\"True\",\"RestaurantsPriceRange2\":\"3\",\"RestaurantsDelivery\":\"None\",\"BusinessParking\":\"{'garage': False, 'street': False, 'validated': False, 'lot': False, 'valet': False}\",\"RestaurantsTakeOut\":\"None\"}","categories":"Shopping, Flowers & Gifts, Florists","hours":"{\"Monday\":\"9:0-16:0\",\"Tuesday\":\"9:0-16:0\",\"Wednesday\":\"9:0-16:0\",\"Thursday\":\"9:0-16:0\",\"Friday\":\"9:0-17:0\"}"},{"business_id":"qwteAVKlwDz1aDUAQQcfiA","name":"Hunan Village","address":"1431 Old York Rd","city":"Abington","state":"PA","postal_code":"19001","latitude":40.1232,"longitude":-75.1158,"stars":2.5,"review_count":16,"is_open":0,"attributes":"{\"RestaurantsAttire\":\"u'casual'\",\"RestaurantsTakeOut\":\"True\",\"GoodForKids\":\"True\",\"BusinessParking\":\"{'garage': False, 'street': False, 'validated': False, 'lot': False, 'valet': False}\",\"RestaurantsGoodForGroups\":\"True\",\"BusinessAcceptsCreditCards\":\"True\",\"OutdoorSeating\":\"False\",\"BikeParking\":\"True\",\"HasTV\":\"False\",\"NoiseLevel\":\"u'quiet'\",\"RestaurantsReservations\":\"True\",\"WiFi\":\"u'no'\",\"Caters\":\"True\",\"RestaurantsPriceRange2\":\"2\",\"RestaurantsDelivery\":\"True\",\"Alcohol\":\"u'none'\"}","categories":"Restaurants, Chinese","hours":"NULL"},{"business_id":"O4pPFABZQztsj3svu7_WSg","name":"Roslyn Pizza","address":"2437 Susquehanna Rd","city":"Abington","state":"PA","postal_code":"19001","latitude":40.1233,"longitude":-75.1368,"stars":3.0,"review_count":35,"is_open":1,"attributes":"{\"HasTV\":\"True\",\"NoiseLevel\":\"u'quiet'\",\"Caters\":\"True\",\"RestaurantsAttire\":\"u'casual'\",\"RestaurantsGoodForGroups\":\"False\",\"BusinessAcceptsCreditCards\":\"True\",\"OutdoorSeating\":\"False\",\"RestaurantsTakeOut\":\"True\",\"RestaurantsDelivery\":\"True\",\"WiFi\":\"u'no'\",\"Alcohol\":\"u'none'\",\"RestaurantsReservations\":\"False\",\"BusinessParking\":\"{'garage': False, 'street': False, 'validated': False, 'lot': True, 'valet': False}\",\"GoodForKids\":\"True\",\"RestaurantsPriceRange2\":\"1\",\"Ambience\":\"{u'divey': False, u'hipster': None, u'casual': True, u'touristy': None, u'trendy': None, u'intimate': None, u'romantic': None, u'classy': None, u'upscale': None}\"}","categories":"Pizza, Restaurants, American (Traditional), American (New), Mediterranean","hours":"{\"Monday\":\"10:30-22:30\",\"Tuesday\":\"10:30-22:30\",\"Wednesday\":\"10:30-22:30\",\"Thursday\":\"10:30-22:30\",\"Friday\":\"10:0-23:0\",\"Saturday\":\"11:0-23:0\",\"Sunday\":\"10:30-22:0\"}"},{"business_id":"WukXhLVHz7CEBScS8EFB5w","name":"Spa Car Wash","address":"1515 Old York Rd","city":"Abington","state":"PA","postal_code":"19001","latitude":40.1264,"longitude":-75.1167,"stars":2.5,"review_count":18,"is_open":0,"attributes":"{\"BusinessAcceptsCreditCards\":\"True\"}","categories":"Automotive, Car Wash","hours":"NULL"},{"business_id":"8PIjJH-R-TYA1kAgWwBLKA","name":"Limberakis Family Dentistry","address":"1021 Old York Rd, Ste 101","city":"Abington","state":"PA","postal_code":"19001","latitude":40.1117,"longitude":-75.1227,"stars":4.5,"review_count":7,"is_open":1,"attributes":"{\"ByAppointmentOnly\":\"True\",\"BusinessAcceptsCreditCards\":\"True\"}","categories":"Doctors, Dentists, Health & Medical, Cosmetic Dentists, Periodontists, General Dentistry, Pediatric Dentists","hours":"{\"Monday\":\"7:30-16:30\",\"Tuesday\":\"7:30-18:30\",\"Wednesday\":\"7:30-20:30\",\"Thursday\":\"7:30-13:0\",\"Friday\":\"8:0-15:0\"}"},{"business_id":"FnDGqFj65MjENJMZ0ZXhgg","name":"Milan Hair Studio","address":"1822 Old York Rd","city":"Abington","state":"PA","postal_code":"19001","latitude":40.1277,"longitude":-75.1311,"stars":5.0,"review_count":5,"is_open":1,"attributes":"{\"RestaurantsPriceRange2\":\"2\",\"BusinessAcceptsCreditCards\":\"True\",\"BusinessParking\":\"{'garage': False, 'street': False, 'validated': False, 'lot': True, 'valet': False}\",\"GoodForKids\":\"True\",\"BikeParking\":\"False\",\"ByAppointmentOnly\":\"False\"}","categories":"Hair Salons, Beauty & Spas","hours":"{\"Tuesday\":\"13:0-20:0\",\"Wednesday\":\"10:0-14:0\",\"Thursday\":\"10:0-19:0\",\"Friday\":\"10:0-19:0\",\"Saturday\":\"9:30-15:33\"}"},{"business_id":"yY8ZNfEggNGWfMyuXyjfZw","name":"Closet Exchange","address":"1901 Old York Rd","city":"Abington","state":"PA","postal_code":"19001","latitude":40.1373,"longitude":-75.1131,"stars":2.5,"review_count":44,"is_open":1,"attributes":"{\"RestaurantsPriceRange2\":\"1\",\"BusinessAcceptsCreditCards\":\"True\",\"BikeParking\":\"False\",\"BusinessParking\":\"{'garage': False, 'street': False, 'validated': False, 'lot': True, 'valet': False}\"}","categories":"Thrift Stores, Shopping","hours":"{\"Monday\":\"10:30-19:30\",\"Tuesday\":\"10:30-19:30\",\"Wednesday\":\"10:30-19:30\",\"Thursday\":\"10:30-19:30\",\"Friday\":\"10:30-19:30\",\"Saturday\":\"10:30-19:30\",\"Sunday\":\"11:30-18:0\"}"},{"business_id":"j69nPX8-rqBAmX28bU0dDQ","name":"Pooh's Corner Consignment","address":"1314 Easton Rd","city":"Abington","state":"PA","postal_code":"19001","latitude":40.1273,"longitude":-75.1311,"stars":4.0,"review_count":9,"is_open":1,"attributes":"{\"RestaurantsPriceRange2\":\"1\",\"BusinessParking\":\"{'garage': False, 'street': True, 'validated': False, 'lot': True, 'valet': False}\",\"BikeParking\":\"False\",\"BusinessAcceptsCreditCards\":\"True\"}","categories":"Baby Gear & Furniture, Thrift Stores, Used, Vintage & Consignment, Toy Stores, Fashion, Shopping","hours":"{\"Monday\":\"0:0-0:0\",\"Tuesday\":\"10:0-17:0\",\"Wednesday\":\"10:0-17:0\",\"Thursday\":\"10:0-17:0\",\"Friday\":\"10:0-17:0\",\"Saturday\":\"10:0-17:0\"}"},{"business_id":"C45AK9qoM6WbT2WOm4K1Lg","name":"Sloane Toyota","address":"527 Easton Rd","city":"Abington","state":"PA","postal_code":"19001","latitude":40.1105,"longitude":-75.1443,"stars":3.0,"review_count":10,"is_open":1,"attributes":"NULL","categories":"Automotive, Car Dealers","hours":"NULL"},{"business_id":"5ErOKHjCoHh9tYrAxRVDEw","name":"Hair Cuttery","address":"1413 Old York Rd","city":"Abington","state":"PA","postal_code":"19001","latitude":40.1228,"longitude":-75.1164,"stars":3.5,"review_count":21,"is_open":1,"attributes":"{\"BusinessAcceptsCreditCards\":\"True\",\"RestaurantsPriceRange2\":\"1\",\"ByAppointmentOnly\":\"False\",\"BikeParking\":\"True\",\"BusinessParking\":\"{u'valet': False, u'garage': False, u'street': False, u'lot': True, u'validated': False}\",\"HairSpecializesIn\":\"{u'africanamerican': False, u'asian': False, u'curly': True, u'perms': True, u'extensions': True, u'straightperms': False, u'coloring': True, u'kids': True}\"}","categories":"Hair Stylists, Men's Hair Salons, Beauty & Spas, Barbers, Hair Salons","hours":"{\"Monday\":\"0:0-0:0\",\"Tuesday\":\"9:0-21:0\",\"Wednesday\":\"9:0-21:0\",\"Thursday\":\"9:0-21:0\",\"Friday\":\"9:0-21:0\",\"Saturday\":\"8:0-19:0\",\"Sunday\":\"9:0-18:0\"}"},{"business_id":"fIY0CBxO2JCtwiDqmGmLMw","name":"Caliber Collision","address":"1135 Easton Rd","city":"Abington","state":"PA","postal_code":"19001","latitude":40.1229,"longitude":-75.1324,"stars":3.5,"review_count":6,"is_open":1,"attributes":"NULL","categories":"Auto Glass Services, Auto Repair, Automotive, Body Shops","hours":"{\"Monday\":\"7:30-17:30\",\"Tuesday\":\"7:30-17:30\",\"Wednesday\":\"7:30-17:30\",\"Thursday\":\"7:30-17:30\",\"Friday\":\"7:30-17:30\",\"Saturday\":\"9:0-12:0\"}"},{"business_id":"Fub2EIa-OnedmsPgC33vXA","name":"Houdini Lock & Safe","address":"932 Old York Rd","city":"Abington","state":"PA","postal_code":"19001","latitude":40.1082,"longitude":-75.1237,"stars":2.5,"review_count":15,"is_open":1,"attributes":"{\"BusinessAcceptsCreditCards\":\"True\",\"BusinessParking\":\"{'garage': False, 'street': False, 'validated': False, 'lot': True, 'valet': False}\",\"BikeParking\":\"True\",\"ByAppointmentOnly\":\"False\",\"DogsAllowed\":\"True\",\"BusinessAcceptsBitcoin\":\"False\",\"WheelchairAccessible\":\"True\"}","categories":"Home & Garden, Keys & Locksmiths, Home Services, Shopping, Security Systems, Hardware Stores, Safe Stores","hours":"{\"Monday\":\"0:0-0:0\",\"Tuesday\":\"0:0-0:0\",\"Wednesday\":\"0:0-0:0\",\"Thursday\":\"0:0-0:0\",\"Friday\":\"0:0-0:0\",\"Saturday\":\"0:0-0:0\",\"Sunday\":\"0:0-0:0\"}"},{"business_id":"puGcZz5LWtXc0bzvfQHoxw","name":"Abington Health Center - Blue Bell","address":"721 Arbor Way","city":"Abington","state":"PA","postal_code":"19001","latitude":40.1402,"longitude":-75.2853,"stars":3.0,"review_count":29,"is_open":1,"attributes":"{\"ByAppointmentOnly\":\"False\"}","categories":"Doctors, Health & Medical, Hospitals, Medical Centers","hours":"NULL"},{"business_id":"QF91-huELD0WLITuKaFMXQ","name":"Quest Diagnostics","address":"1419 Old York Rd","city":"Abington","state":"PA","postal_code":"19001","latitude":40.1227,"longitude":-75.1162,"stars":2.0,"review_count":13,"is_open":1,"attributes":"{\"AcceptsInsurance\":\"True\",\"ByAppointmentOnly\":\"False\",\"BusinessAcceptsCreditCards\":\"True\"}","categories":"Health & Medical, Laboratory Testing, Diagnostic Services","hours":"{\"Monday\":\"6:30-15:0\",\"Tuesday\":\"6:30-15:0\",\"Wednesday\":\"6:30-15:0\",\"Thursday\":\"6:30-15:0\",\"Friday\":\"6:30-15:0\",\"Saturday\":\"8:0-12:0\"}"},{"business_id":"Pw77mNz6cso9quMp2NwaiA","name":"Mr P Pizza & Pasta","address":"1427 Old York Rd","city":"Abington","state":"PA","postal_code":"19001","latitude":40.1231,"longitude":-75.1159,"stars":3.0,"review_count":61,"is_open":1,"attributes":"{\"Alcohol\":\"u'none'\",\"RestaurantsAttire\":\"'casual'\",\"GoodForKids\":\"True\",\"BusinessAcceptsCreditCards\":\"True\",\"BikeParking\":\"False\",\"NoiseLevel\":\"u'loud'\",\"Caters\":\"True\",\"Ambience\":\"{'touristy': False, 'hipster': False, 'romantic': False, 'divey': None, 'intimate': False, 'trendy': False, 'upscale': False, 'classy': False, 'casual': True}\",\"HasTV\":\"True\",\"RestaurantsGoodForGroups\":\"True\",\"RestaurantsDelivery\":\"True\",\"RestaurantsReservations\":\"False\",\"RestaurantsPriceRange2\":\"1\",\"RestaurantsTakeOut\":\"True\",\"BusinessParking\":\"{'garage': False, 'street': False, 'validated': False, 'lot': False, 'valet': False}\",\"GoodForMeal\":\"{'dessert': False, 'latenight': False, 'lunch': False, 'dinner': False, 'brunch': False, 'breakfast': False}\",\"OutdoorSeating\":\"False\"}","categories":"Restaurants, Pizza","hours":"{\"Monday\":\"10:0-22:0\",\"Tuesday\":\"10:0-22:0\",\"Wednesday\":\"10:0-22:0\",\"Thursday\":\"10:0-22:0\",\"Friday\":\"10:0-23:0\",\"Saturday\":\"10:0-23:0\",\"Sunday\":\"11:0-22:0\"}"},{"business_id":"730bVHXxxUl1Z6p_e8DdgA","name":"Mona N Patel, DMD","address":"1919 Susquehanna Rd","city":"Abington","state":"PA","postal_code":"19001","latitude":40.1152,"longitude":-75.1224,"stars":5.0,"review_count":9,"is_open":1,"attributes":"{\"ByAppointmentOnly\":\"True\",\"AcceptsInsurance\":\"True\",\"BusinessAcceptsCreditCards\":\"True\"}","categories":"Dentists, Health & Medical, Insurance, Cosmetic Dentists, Financial Services, General Dentistry","hours":"{\"Monday\":\"7:0-15:0\",\"Tuesday\":\"7:0-15:0\",\"Wednesday\":\"7:0-19:0\",\"Thursday\":\"7:0-15:0\"}"},{"business_id":"H9iwWUxscr1s8N_blCFORQ","name":"StyleAndBeauty Bar","address":"1205 Easton Rd","city":"Abington","state":"PA","postal_code":"19001","latitude":40.1252,"longitude":-75.1326,"stars":5.0,"review_count":5,"is_open":1,"attributes":"{\"BikeParking\":\"True\",\"WheelchairAccessible\":\"True\",\"RestaurantsPriceRange2\":\"2\",\"BusinessAcceptsBitcoin\":\"False\",\"WiFi\":\"u'free'\",\"BusinessAcceptsCreditCards\":\"True\",\"BusinessParking\":\"{'garage': False, 'street': False, 'validated': False, 'lot': True, 'valet': False}\",\"ByAppointmentOnly\":\"True\"}","categories":"Eyelash Service, Beauty & Spas, Permanent Makeup, Eyebrow Services, Hair Removal, Makeup Artists, Waxing","hours":"{\"Monday\":\"9:0-19:0\",\"Tuesday\":\"9:0-19:0\",\"Wednesday\":\"9:0-19:0\",\"Thursday\":\"9:0-19:0\",\"Friday\":\"9:0-20:0\",\"Saturday\":\"9:0-20:0\"}"},{"business_id":"aVJ4ohmY-sxCVxLvpLFxRQ","name":"Labcorp","address":"1151 Old York Rd, Ste 102","city":"Abington","state":"PA","postal_code":"19001","latitude":40.1162,"longitude":-75.1206,"stars":4.5,"review_count":6,"is_open":1,"attributes":"{\"AcceptsInsurance\":\"True\",\"ByAppointmentOnly\":\"False\"}","categories":"Laboratory Testing, Diagnostic Services, Health & Medical","hours":"{\"Monday\":\"0:0-0:0\",\"Tuesday\":\"7:0-14:30\",\"Wednesday\":\"7:0-14:30\",\"Thursday\":\"7:0-12:0\",\"Friday\":\"7:0-14:30\",\"Saturday\":\"7:0-11:0\"}"},{"business_id":"1QhVyffaYx6Y_gEtNOQoAA","name":"Levis Hot Dogs & Sandwiches","address":"966 Old York Rd","city":"Abington","state":"PA","postal_code":"19001","latitude":40.1094,"longitude":-75.1236,"stars":3.5,"review_count":70,"is_open":0,"attributes":"{\"BusinessAcceptsCreditCards\":\"True\",\"OutdoorSeating\":\"False\",\"RestaurantsTakeOut\":\"True\",\"RestaurantsGoodForGroups\":\"True\",\"RestaurantsReservations\":\"False\",\"Alcohol\":\"u'none'\",\"Ambience\":\"{'romantic': False, 'intimate': False, 'touristy': False, 'hipster': False, 'divey': False, 'classy': False, 'trendy': False, 'upscale': False, 'casual': True}\",\"RestaurantsDelivery\":\"True\",\"NoiseLevel\":\"u'quiet'\",\"HasTV\":\"False\",\"RestaurantsAttire\":\"u'casual'\",\"RestaurantsPriceRange2\":\"1\",\"GoodForKids\":\"True\",\"WiFi\":\"u'free'\",\"BikeParking\":\"False\",\"BusinessParking\":\"{'garage': False, 'street': False, 'validated': False, 'lot': True, 'valet': False}\",\"Caters\":\"True\",\"GoodForMeal\":\"{'dessert': False, 'latenight': False, 'lunch': True, 'dinner': False, 'brunch': False, 'breakfast': False}\"}","categories":"Restaurants, Ice Cream & Frozen Yogurt, Food, Sandwiches, Hot Dogs","hours":"NULL"},{"business_id":"IgQc-apHYE_x3HQvxNgaBA","name":"Wayne Earp Home Improvements","address":"1337 Green Rd","city":"Abington","state":"PA","postal_code":"19001","latitude":40.1368,"longitude":-75.1458,"stars":5.0,"review_count":5,"is_open":1,"attributes":"{\"BusinessAcceptsCreditCards\":\"True\"}","categories":"Contractors, Carpenters, Home Services, Painters, Interior Design, Local Services, Glass & Mirrors, Handyman, Drywall Installation & Repair","hours":"{\"Monday\":\"8:0-17:0\",\"Tuesday\":\"8:0-17:0\",\"Wednesday\":\"8:0-17:0\",\"Thursday\":\"8:0-17:0\",\"Friday\":\"8:0-17:0\",\"Saturday\":\"8:0-17:0\"}"},{"business_id":"AzdXHnjfIA0ljYbyPg5roQ","name":"Sussman Honda","address":"1543 Easton Rd","city":"Abington","state":"PA","postal_code":"19001","latitude":40.131,"longitude":-75.1262,"stars":1.5,"review_count":13,"is_open":1,"attributes":"NULL","categories":"Automotive, Car Dealers, Body Shops, Auto Repair","hours":"{\"Monday\":\"9:0-21:0\",\"Tuesday\":\"9:0-21:0\",\"Wednesday\":\"9:0-21:0\",\"Thursday\":\"9:0-21:0\",\"Friday\":\"9:0-18:0\",\"Saturday\":\"9:0-17:0\"}"},{"business_id":"YI9NPlcOxYm0NA-pgGII7g","name":"Sally Beauty Supply","address":"1429 Old York Rd","city":"Abington","state":"PA","postal_code":"19001","latitude":40.1232,"longitude":-75.1158,"stars":2.5,"review_count":5,"is_open":0,"attributes":"{\"RestaurantsPriceRange2\":\"2\",\"BusinessAcceptsCreditCards\":\"True\",\"BikeParking\":\"False\",\"ByAppointmentOnly\":\"False\",\"BusinessParking\":\"{'garage': False, 'street': False, 'validated': False, 'lot': True, 'valet': False}\"}","categories":"Beauty & Spas, Cosmetics & Beauty Supply, Shopping","hours":"NULL"},{"business_id":"BW8AzQxlVK24DBfC0gaaww","name":"Old Town Buffet, Inc","address":"1495 Old York Rd","city":"Abington","state":"PA","postal_code":"19001","latitude":40.1252,"longitude":-75.1158,"stars":2.0,"review_count":17,"is_open":0,"attributes":"{\"BusinessParking\":\"{'garage': False, 'street': False, 'validated': False, 'lot': True, 'valet': False}\",\"OutdoorSeating\":\"False\",\"RestaurantsDelivery\":\"False\",\"Ambience\":\"{'romantic': False, 'intimate': False, 'touristy': False, 'hipster': False, 'divey': False, 'classy': False, 'trendy': False, 'upscale': False, 'casual': False}\",\"RestaurantsTakeOut\":\"True\",\"RestaurantsGoodForGroups\":\"True\",\"WiFi\":\"u'no'\",\"GoodForKids\":\"True\",\"RestaurantsPriceRange2\":\"2\",\"Caters\":\"False\",\"RestaurantsAttire\":\"u'casual'\",\"NoiseLevel\":\"u'loud'\",\"RestaurantsReservations\":\"False\",\"BusinessAcceptsCreditCards\":\"True\",\"HasTV\":\"False\",\"Alcohol\":\"u'none'\"}","categories":"Restaurants, Buffets","hours":"NULL"},{"business_id":"5N-93oMmm0MUt8HvyOot5A","name":"Boston Market","address":"1776 Old York Rd","city":"Abington","state":"PA","postal_code":"19001","latitude":40.1347,"longitude":-75.1154,"stars":2.0,"review_count":47,"is_open":1,"attributes":"{\"WiFi\":\"u'paid'\",\"RestaurantsTakeOut\":\"True\",\"RestaurantsReservations\":\"False\",\"OutdoorSeating\":\"False\",\"RestaurantsPriceRange2\":\"1\",\"RestaurantsGoodForGroups\":\"True\",\"GoodForKids\":\"True\",\"BusinessAcceptsCreditCards\":\"True\",\"BikeParking\":\"True\",\"Caters\":\"True\",\"Alcohol\":\"u'none'\",\"BusinessParking\":\"{'garage': False, 'street': False, 'validated': False, 'lot': True, 'valet': False}\",\"GoodForMeal\":\"{'dessert': None, 'latenight': None, 'lunch': True, 'dinner': True, 'brunch': None, 'breakfast': None}\",\"Ambience\":\"{u'divey': None, u'hipster': False, u'casual': True, u'touristy': None, u'trendy': None, u'intimate': False, u'romantic': False, u'classy': False, u'upscale': False}\",\"HasTV\":\"True\",\"RestaurantsDelivery\":\"True\",\"RestaurantsAttire\":\"'casual'\"}","categories":"Restaurants, Fast Food, Comfort Food, American (Traditional), Sandwiches, Chicken Shop, Caterers, Event Planning & Services","hours":"{\"Monday\":\"11:0-22:0\",\"Tuesday\":\"11:0-22:0\",\"Wednesday\":\"11:0-22:0\",\"Thursday\":\"11:0-22:0\",\"Friday\":\"11:0-22:0\",\"Saturday\":\"11:0-22:0\",\"Sunday\":\"11:0-21:0\"}"},{"business_id":"sNOzfwyTZDwKtMiTwjQobA","name":"Vintage Bar and Grill","address":"1116 Old York Rd","city":"Abington","state":"PA","postal_code":"19001","latitude":40.1151,"longitude":-75.1217,"stars":4.0,"review_count":154,"is_open":1,"attributes":"{\"RestaurantsPriceRange2\":\"2\",\"Alcohol\":\"u'full_bar'\",\"RestaurantsGoodForGroups\":\"True\",\"RestaurantsTakeOut\":\"True\",\"BusinessParking\":\"{'garage': False, 'street': False, 'validated': False, 'lot': True, 'valet': False}\",\"RestaurantsAttire\":\"u'casual'\",\"GoodForKids\":\"True\",\"BusinessAcceptsCreditCards\":\"True\",\"HasTV\":\"True\",\"OutdoorSeating\":\"True\",\"RestaurantsReservations\":\"True\",\"WiFi\":\"u'free'\",\"BestNights\":\"{'monday': False, 'tuesday': False, 'friday': True, 'wednesday': True, 'thursday': False, 'sunday': False, 'saturday': True}\",\"Caters\":\"True\",\"NoiseLevel\":\"u'average'\",\"GoodForMeal\":\"{'dessert': False, 'latenight': True, 'lunch': True, 'dinner': True, 'brunch': False, 'breakfast': False}\",\"BikeParking\":\"True\",\"Music\":\"{'dj': False, 'background_music': False, 'no_music': False, 'jukebox': False, 'live': True, 'video': False, 'karaoke': False}\",\"Ambience\":\"{u'divey': False, u'hipster': False, u'casual': True, u'touristy': False, u'trendy': False, u'intimate': False, u'romantic': False, u'classy': False, u'upscale': False}\",\"RestaurantsDelivery\":\"False\"}","categories":"Bars, American (Traditional), Nightlife, Sports Bars, Restaurants, Sandwiches","hours":"{\"Tuesday\":\"11:30-21:30\",\"Wednesday\":\"11:30-21:30\",\"Thursday\":\"11:30-21:30\",\"Friday\":\"11:30-22:0\",\"Saturday\":\"11:30-22:0\",\"Sunday\":\"11:30-21:0\"}"},{"business_id":"9TxSWAnP3mjlF2AciRJYHg","name":"Silvermoon Pizzeria Restaurant","address":"1366 Easton Rd","city":"Abington","state":"PA","postal_code":"19001","latitude":40.1289,"longitude":-75.1297,"stars":4.0,"review_count":24,"is_open":1,"attributes":"{\"RestaurantsPriceRange2\":\"1\",\"Alcohol\":\"u'none'\",\"GoodForKids\":\"True\",\"RestaurantsReservations\":\"False\",\"RestaurantsDelivery\":\"True\",\"RestaurantsTakeOut\":\"True\",\"HasTV\":\"True\",\"NoiseLevel\":\"u'average'\",\"BusinessParking\":\"{'garage': False, 'street': False, 'validated': False, 'lot': False, 'valet': False}\",\"BusinessAcceptsCreditCards\":\"True\",\"Ambience\":\"{u'divey': None, u'hipster': None, u'casual': None, u'touristy': None, u'trendy': None, u'intimate': False, u'romantic': None, u'classy': None, u'upscale': None}\",\"RestaurantsAttire\":\"u'casual'\",\"BikeParking\":\"True\"}","categories":"Restaurants, Pizza, Italian, Greek","hours":"{\"Monday\":\"8:0-22:0\",\"Tuesday\":\"8:0-22:0\",\"Wednesday\":\"8:0-23:0\",\"Thursday\":\"8:15-22:0\",\"Friday\":\"8:0-11:0\",\"Saturday\":\"8:0-23:0\",\"Sunday\":\"8:30-22:0\"}"},{"business_id":"ot24x_gq8fDPxx0kUaz_JQ","name":"Chud Air Conditioning Heating","address":"1570 Old York Rd","city":"Abington","state":"PA","postal_code":"19001","latitude":40.1287,"longitude":-75.1171,"stars":3.0,"review_count":17,"is_open":1,"attributes":"{\"BusinessAcceptsCreditCards\":\"True\"}","categories":"Water Heater Installation\/Repair, Heating & Air Conditioning\/HVAC, Home Services","hours":"{\"Monday\":\"8:0-22:0\",\"Tuesday\":\"8:0-22:0\",\"Wednesday\":\"8:0-22:0\",\"Thursday\":\"8:0-22:0\",\"Friday\":\"8:0-22:0\",\"Saturday\":\"8:0-22:0\",\"Sunday\":\"8:0-22:0\"}"},{"business_id":"vn1KdiQWFGHCH_O1nNtpjQ","name":"Armstrong Colt George Ophthalmology","address":"1550 Old York Rd, Ste 3","city":"Abington","state":"PA","postal_code":"19001","latitude":40.128,"longitude":-75.1175,"stars":2.5,"review_count":9,"is_open":1,"attributes":"{\"ByAppointmentOnly\":\"True\",\"AcceptsInsurance\":\"True\",\"BusinessAcceptsCreditCards\":\"True\"}","categories":"Health & Medical, Optometrists","hours":"NULL"},{"business_id":"rPW3DuBGkPNcBU5uLIXcLQ","name":"Ken's Thai Cuisine","address":"1533 Old York Rd","city":"Abington","state":"PA","postal_code":"19001","latitude":40.1271,"longitude":-75.1167,"stars":4.0,"review_count":18,"is_open":0,"attributes":"{\"GoodForKids\":\"True\",\"RestaurantsDelivery\":\"True\",\"HasTV\":\"False\",\"BusinessAcceptsCreditCards\":\"True\",\"RestaurantsReservations\":\"True\",\"RestaurantsTakeOut\":\"True\",\"OutdoorSeating\":\"False\",\"RestaurantsAttire\":\"u'casual'\",\"GoodForMeal\":\"{'dessert': False, 'latenight': False, 'lunch': False, 'dinner': False, 'brunch': False, 'breakfast': False}\",\"Alcohol\":\"u'none'\",\"RestaurantsPriceRange2\":\"2\",\"RestaurantsGoodForGroups\":\"True\",\"RestaurantsTableService\":\"True\",\"BikeParking\":\"True\",\"Ambience\":\"{'romantic': False, 'intimate': False, 'classy': False, 'hipster': False, 'divey': False, 'touristy': False, 'trendy': False, 'upscale': False, 'casual': False}\",\"BusinessParking\":\"{'garage': False, 'street': False, 'validated': False, 'lot': True, 'valet': False}\",\"NoiseLevel\":\"u'quiet'\",\"WiFi\":\"u'no'\"}","categories":"Thai, Restaurants","hours":"{\"Tuesday\":\"11:0-21:30\",\"Wednesday\":\"11:0-21:30\",\"Thursday\":\"11:0-21:30\",\"Friday\":\"11:0-22:0\",\"Saturday\":\"11:0-22:0\",\"Sunday\":\"15:0-20:0\"}"},{"business_id":"7ataHmTq7FemQTQQ3ncYWw","name":"Rite Aid","address":"1321 Easton Rd","city":"Abington","state":"PA","postal_code":"19001","latitude":40.1266,"longitude":-75.1309,"stars":2.0,"review_count":5,"is_open":1,"attributes":"{\"BusinessAcceptsCreditCards\":\"True\"}","categories":"Drugstores, Convenience Stores, Shopping, Food","hours":"{\"Monday\":\"8:0-22:0\",\"Tuesday\":\"8:0-22:0\",\"Wednesday\":\"8:0-22:0\",\"Thursday\":\"8:0-22:0\",\"Friday\":\"8:0-22:0\",\"Saturday\":\"8:0-22:0\",\"Sunday\":\"9:0-20:0\"}"},{"business_id":"eUnDw1oABEFGkHXAmHj43w","name":"Shannon Collins Photography","address":"","city":"Abington","state":"PA","postal_code":"19001","latitude":40.1245,"longitude":-75.1298,"stars":5.0,"review_count":10,"is_open":1,"attributes":"{\"BusinessAcceptsCreditCards\":\"True\"}","categories":"Event Planning & Services, Event Photography, Photographers, Session Photography","hours":"{\"Monday\":\"9:0-17:0\",\"Tuesday\":\"9:0-17:0\",\"Wednesday\":\"9:0-17:0\",\"Thursday\":\"9:0-17:0\",\"Friday\":\"9:0-17:0\",\"Saturday\":\"9:0-23:0\",\"Sunday\":\"9:0-23:0\"}"},{"business_id":"Xk2hj0Bvrlxs22uGSyqkXg","name":"Fast Local Garage Door","address":"1301 Easton Rd","city":"Abington","state":"PA","postal_code":"19001","latitude":40.1264,"longitude":-75.1315,"stars":4.0,"review_count":10,"is_open":1,"attributes":"{\"BusinessAcceptsCreditCards\":\"True\",\"BusinessAcceptsBitcoin\":\"False\",\"ByAppointmentOnly\":\"True\"}","categories":"Garage Door Services, Contractors, Home Services","hours":"{\"Monday\":\"8:0-19:0\",\"Tuesday\":\"8:0-19:0\",\"Wednesday\":\"8:0-19:0\",\"Thursday\":\"9:0-19:0\",\"Friday\":\"8:0-19:0\",\"Saturday\":\"7:0-19:0\"}"},{"business_id":"-gg96o-MxRQ7s_NOyTpvJw","name":"Abington Pediatric Associates","address":"1047 Old York Rd","city":"Abington","state":"PA","postal_code":"19001","latitude":40.1126,"longitude":-75.1227,"stars":3.5,"review_count":20,"is_open":1,"attributes":"{\"ByAppointmentOnly\":\"True\",\"BusinessAcceptsCreditCards\":\"True\"}","categories":"Health & Medical, Doctors, Pediatricians","hours":"{\"Monday\":\"8:0-20:0\",\"Tuesday\":\"8:0-20:0\",\"Wednesday\":\"8:0-20:0\",\"Thursday\":\"8:0-20:0\",\"Friday\":\"8:0-17:0\",\"Saturday\":\"9:0-12:0\",\"Sunday\":\"9:0-11:0\"}"},{"business_id":"AIjauqmxDv33yPRvDO9LQA","name":"Cardano Realtors","address":"1021 Old York Rd","city":"Abington","state":"PA","postal_code":"19001","latitude":40.1117,"longitude":-75.1227,"stars":2.5,"review_count":10,"is_open":0,"attributes":"{\"BusinessAcceptsCreditCards\":\"False\",\"ByAppointmentOnly\":\"True\"}","categories":"Real Estate, Real Estate Agents, Real Estate Services, Home Services","hours":"{\"Monday\":\"9:0-17:0\",\"Tuesday\":\"9:0-17:0\",\"Wednesday\":\"9:0-17:0\",\"Thursday\":\"9:0-17:0\",\"Friday\":\"9:0-17:0\"}"},{"business_id":"JJmr_7MHLKzYoFG_B6YdjA","name":"Nazar's Auto Sales","address":"1664 Old York Rd","city":"Abington","state":"PA","postal_code":"19001","latitude":40.1316,"longitude":-75.1163,"stars":4.5,"review_count":12,"is_open":1,"attributes":"NULL","categories":"Automotive, Car Dealers","hours":"NULL"},{"business_id":"diOyzo_8fhLBBPuCoMTGcw","name":"Giant","address":"2350 Susquehanna Rd","city":"Abington","state":"PA","postal_code":"19001","latitude":40.1245,"longitude":-75.1323,"stars":3.0,"review_count":14,"is_open":1,"attributes":"{\"BusinessParking\":\"{'garage': False, 'street': False, 'validated': False, 'lot': True, 'valet': False}\",\"BikeParking\":\"True\",\"RestaurantsPriceRange2\":\"2\",\"RestaurantsTakeOut\":\"True\",\"BusinessAcceptsCreditCards\":\"True\"}","categories":"Grocery, Food","hours":"{\"Monday\":\"6:0-0:0\",\"Tuesday\":\"6:0-0:0\",\"Wednesday\":\"6:0-0:0\",\"Thursday\":\"6:0-0:0\",\"Friday\":\"6:0-0:0\",\"Saturday\":\"6:0-0:0\",\"Sunday\":\"6:0-0:0\"}"},{"business_id":"nXx6nOAqC0DqVCUObuUsMA","name":"Lee's Hoagie House","address":"1656 Old York Rd","city":"Abington","state":"PA","postal_code":"19001","latitude":40.1313,"longitude":-75.1164,"stars":3.0,"review_count":103,"is_open":1,"attributes":"{\"WiFi\":\"'free'\",\"GoodForKids\":\"True\",\"RestaurantsReservations\":\"False\",\"OutdoorSeating\":\"False\",\"RestaurantsGoodForGroups\":\"True\",\"RestaurantsDelivery\":\"True\",\"HasTV\":\"True\",\"BusinessAcceptsCreditCards\":\"True\",\"RestaurantsAttire\":\"u'casual'\",\"BusinessParking\":\"{'garage': False, 'street': False, 'validated': False, 'lot': True, 'valet': False}\",\"NoiseLevel\":\"u'average'\",\"Caters\":\"True\",\"Alcohol\":\"u'none'\",\"BikeParking\":\"True\",\"Ambience\":\"{'romantic': False, 'intimate': False, 'classy': False, 'hipster': False, 'divey': False, 'touristy': False, 'trendy': False, 'upscale': False, 'casual': True}\",\"RestaurantsPriceRange2\":\"1\",\"RestaurantsTakeOut\":\"True\",\"GoodForMeal\":\"{'dessert': False, 'latenight': False, 'lunch': True, 'dinner': True, 'brunch': False, 'breakfast': False}\"}","categories":"Wraps, Sandwiches, Chicken Wings, Restaurants, Cheesesteaks, Delis","hours":"{\"Monday\":\"10:0-21:0\",\"Tuesday\":\"10:0-21:0\",\"Wednesday\":\"10:0-21:0\",\"Thursday\":\"10:0-21:0\",\"Friday\":\"10:0-21:0\",\"Saturday\":\"10:0-21:0\",\"Sunday\":\"11:0-20:0\"}"},{"business_id":"lrFFdT0obUgzjN3-Ysc6Lw","name":"Hollywood Tavern","address":"700 Huntingdon Pke","city":"Abington","state":"PA","postal_code":"19001","latitude":40.085,"longitude":-75.0938,"stars":2.0,"review_count":14,"is_open":1,"attributes":"{\"RestaurantsPriceRange2\":\"2\",\"Caters\":\"False\",\"OutdoorSeating\":\"False\",\"Alcohol\":\"u'full_bar'\",\"BikeParking\":\"False\",\"GoodForKids\":\"False\",\"WiFi\":\"'free'\",\"RestaurantsReservations\":\"False\",\"BusinessParking\":\"{'garage': False, 'street': False, 'validated': False, 'lot': True, 'valet': False}\",\"RestaurantsAttire\":\"u'casual'\",\"RestaurantsGoodForGroups\":\"True\",\"RestaurantsDelivery\":\"False\",\"RestaurantsTakeOut\":\"True\",\"NoiseLevel\":\"u'average'\",\"HasTV\":\"True\",\"Ambience\":\"{'romantic': False, 'intimate': False, 'classy': False, 'hipster': False, 'divey': False, 'touristy': False, 'trendy': False, 'upscale': False, 'casual': False}\",\"Music\":\"{'dj': False, 'background_music': False, 'no_music': False, 'jukebox': False, 'live': True, 'video': False, 'karaoke': False}\",\"BusinessAcceptsCreditCards\":\"False\"}","categories":"Restaurants, Bars, American (Traditional), Nightlife","hours":"NULL"},{"business_id":"Vu_jUOCQ_NX7bQbVC6Sq4g","name":"Abington Branch YMCA","address":"1073 Old York Rd","city":"Abington","state":"PA","postal_code":"19001","latitude":40.1138,"longitude":-75.1215,"stars":2.5,"review_count":8,"is_open":0,"attributes":"{\"BusinessAcceptsCreditCards\":\"True\",\"GoodForKids\":\"True\",\"BusinessParking\":\"{'garage': False, 'street': False, 'validated': False, 'lot': False, 'valet': False}\"}","categories":"Local Services, Fitness & Instruction, Amateur Sports Teams, Child Care & Day Care, Gyms, Active Life","hours":"{\"Monday\":\"5:0-22:0\",\"Tuesday\":\"5:0-22:0\",\"Wednesday\":\"5:0-22:0\",\"Thursday\":\"5:0-22:0\",\"Friday\":\"5:0-22:0\",\"Saturday\":\"7:0-19:0\",\"Sunday\":\"8:0-19:0\"}"},{"business_id":"vqJJTKD9q52DD4RcM_z52A","name":"Gary Nevitt Photography","address":"2123 Ridgeview Ave","city":"Abington","state":"PA","postal_code":"19001","latitude":40.1242,"longitude":-75.1253,"stars":4.5,"review_count":10,"is_open":1,"attributes":"{\"WiFi\":\"u'no'\",\"RestaurantsPriceRange2\":\"4\",\"BusinessAcceptsCreditCards\":\"True\"}","categories":"Session Photography, Event Planning & Services, Event Photography, Photographers, Photography Stores & Services, Shopping, Pets, Pet Services, Pet Photography","hours":"{\"Monday\":\"9:0-17:0\",\"Tuesday\":\"9:0-17:0\",\"Wednesday\":\"9:0-17:0\",\"Thursday\":\"9:0-17:0\",\"Friday\":\"9:0-17:0\"}"},{"business_id":"hG7zvr6p8RCGRq9tJlgqxA","name":"Your Home Solutions","address":"","city":"Abington","state":"PA","postal_code":"19001","latitude":40.1231,"longitude":-75.1236,"stars":4.0,"review_count":5,"is_open":1,"attributes":"{\"BusinessAcceptsCreditCards\":\"True\",\"ByAppointmentOnly\":\"True\"}","categories":"Electricians, Home Services, Plumbing, Heating & Air Conditioning\/HVAC, Lighting Fixtures & Equipment, Insulation Installation, Roofing, Contractors","hours":"{\"Monday\":\"0:0-0:0\",\"Tuesday\":\"0:0-0:0\",\"Wednesday\":\"0:0-0:0\",\"Thursday\":\"0:0-0:0\",\"Friday\":\"0:0-0:0\",\"Saturday\":\"0:0-0:0\",\"Sunday\":\"0:0-0:0\"}"},{"business_id":"5MtzzOZi1dIR2yQgNQOhaA","name":"The Vitamin Shoppe","address":"1817 Old York Rd","city":"Abington","state":"PA","postal_code":"19001","latitude":40.1352,"longitude":-75.1144,"stars":4.5,"review_count":7,"is_open":1,"attributes":"{\"BusinessAcceptsCreditCards\":\"True\",\"BusinessParking\":\"{'garage': False, 'street': False, 'validated': False, 'lot': True, 'valet': False}\"}","categories":"Vitamins & Supplements, Specialty Food, Cosmetics & Beauty Supply, Health Markets, Beauty & Spas, Shopping, Food","hours":"{\"Monday\":\"0:0-0:0\",\"Tuesday\":\"9:30-21:0\",\"Wednesday\":\"9:30-21:0\",\"Thursday\":\"9:30-21:0\",\"Friday\":\"9:30-19:0\",\"Saturday\":\"10:0-19:0\",\"Sunday\":\"10:0-18:0\"}"},{"business_id":"MxNVMwWRoqhSYujo09oMtA","name":"CareSTAT Urgent Care","address":"1468 Old York Rd","city":"Abington","state":"PA","postal_code":"19001","latitude":40.1239,"longitude":-75.1177,"stars":2.5,"review_count":28,"is_open":0,"attributes":"{\"ByAppointmentOnly\":\"False\",\"BusinessAcceptsCreditCards\":\"True\"}","categories":"Urgent Care, Emergency Rooms, Doctors, Health & Medical, Family Practice, Medical Centers","hours":"{\"Monday\":\"8:0-20:0\",\"Tuesday\":\"8:0-20:0\",\"Wednesday\":\"8:0-20:0\",\"Thursday\":\"8:0-20:0\",\"Friday\":\"8:0-20:0\",\"Saturday\":\"8:0-20:0\",\"Sunday\":\"8:0-16:0\"}"},{"business_id":"sSpavSvNjMcA7MVyWZbNMw","name":"Corner Bakery Cafe","address":"1423 Old York Rd","city":"Abington","state":"PA","postal_code":"19001","latitude":40.1229,"longitude":-75.1161,"stars":3.5,"review_count":19,"is_open":0,"attributes":"{\"BusinessAcceptsCreditCards\":\"True\",\"GoodForKids\":\"True\",\"RestaurantsPriceRange2\":\"1\",\"RestaurantsDelivery\":\"False\",\"RestaurantsAttire\":\"'casual'\",\"Alcohol\":\"u'none'\",\"BikeParking\":\"False\",\"GoodForMeal\":\"{'dessert': False, 'latenight': False, 'lunch': False, 'dinner': False, 'brunch': False, 'breakfast': True}\",\"RestaurantsReservations\":\"False\",\"HasTV\":\"False\",\"OutdoorSeating\":\"False\",\"RestaurantsTakeOut\":\"True\",\"WiFi\":\"'free'\",\"BusinessParking\":\"{'garage': False, 'street': False, 'validated': False, 'lot': False, 'valet': False}\",\"Ambience\":\"{'romantic': False, 'intimate': False, 'classy': False, 'hipster': False, 'divey': False, 'touristy': False, 'trendy': False, 'upscale': False, 'casual': False}\",\"Caters\":\"True\",\"RestaurantsTableService\":\"False\",\"NoiseLevel\":\"u'average'\",\"RestaurantsGoodForGroups\":\"True\"}","categories":"Breakfast & Brunch, Food, American (New), Sandwiches, Food Delivery Services, Restaurants","hours":"{\"Monday\":\"6:30-21:0\",\"Tuesday\":\"6:30-21:0\",\"Wednesday\":\"6:30-21:0\",\"Thursday\":\"6:30-21:0\",\"Friday\":\"6:30-21:0\",\"Saturday\":\"6:30-21:0\",\"Sunday\":\"6:30-21:0\"}"},{"business_id":"71142Ice897c19VUQmVFLg","name":"Abington Nails","address":"1423 Old York Rd","city":"Abington","state":"PA","postal_code":"19001","latitude":40.1229,"longitude":-75.1161,"stars":2.5,"review_count":47,"is_open":1,"attributes":"{\"BusinessAcceptsCreditCards\":\"True\",\"RestaurantsPriceRange2\":\"2\",\"BusinessParking\":\"{'garage': False, 'street': False, 'validated': False, 'lot': True, 'valet': False}\",\"ByAppointmentOnly\":\"False\",\"BikeParking\":\"False\"}","categories":"Nail Salons, Beauty & Spas","hours":"NULL"},{"business_id":"K96v7hMf3L7ijo8YdElNXA","name":"Hairstyling By Anne Marie","address":"1305 Easton Rd","city":"Abington","state":"PA","postal_code":"19001","latitude":40.1264,"longitude":-75.1314,"stars":3.5,"review_count":8,"is_open":1,"attributes":"{\"BusinessAcceptsCreditCards\":\"True\",\"GoodForKids\":\"True\",\"RestaurantsPriceRange2\":\"2\",\"ByAppointmentOnly\":\"True\"}","categories":"Hair Salons, Hair Extensions, Men's Hair Salons, Beauty & Spas","hours":"{\"Tuesday\":\"10:0-19:0\",\"Wednesday\":\"11:0-18:0\",\"Thursday\":\"10:0-19:0\",\"Friday\":\"10:0-18:0\",\"Saturday\":\"10:0-16:0\"}"},{"business_id":"Gu9O-fogu9lOn6IYtG9pfw","name":"Lang Chiropractic","address":"960 Old York Rd, Ste 201","city":"Abington","state":"PA","postal_code":"19001","latitude":40.109,"longitude":-75.1236,"stars":2.5,"review_count":5,"is_open":1,"attributes":"{\"BusinessAcceptsCreditCards\":\"True\",\"GoodForKids\":\"True\",\"ByAppointmentOnly\":\"True\"}","categories":"Chiropractors, Active Life, Pilates, Health & Medical, Massage Therapy, Fitness & Instruction","hours":"{\"Monday\":\"12:0-18:0\",\"Tuesday\":\"13:30-18:0\",\"Wednesday\":\"13:30-18:0\",\"Thursday\":\"13:30-18:0\",\"Friday\":\"9:0-12:0\",\"Saturday\":\"9:0-12:0\"}"},{"business_id":"xZBx-Xzoi2dBK4axnT-Lrw","name":"Grace House Restaurant","address":"1300 Easton Rd","city":"Abington","state":"PA","postal_code":"19001","latitude":40.127,"longitude":-75.1315,"stars":3.5,"review_count":25,"is_open":1,"attributes":"{\"GoodForKids\":\"True\",\"RestaurantsReservations\":\"False\",\"RestaurantsGoodForGroups\":\"False\",\"RestaurantsDelivery\":\"True\",\"BusinessParking\":\"{'garage': False, 'street': True, 'validated': False, 'lot': False, 'valet': False}\",\"RestaurantsTakeOut\":\"True\",\"OutdoorSeating\":\"False\",\"Alcohol\":\"u'none'\",\"RestaurantsPriceRange2\":\"1\",\"RestaurantsAttire\":\"u'casual'\",\"Ambience\":\"{'touristy': False, 'hipster': False, 'romantic': False, 'divey': False, 'intimate': False, 'trendy': False, 'upscale': False, 'classy': False, 'casual': False}\",\"WiFi\":\"u'no'\",\"BikeParking\":\"True\",\"HasTV\":\"False\",\"BusinessAcceptsCreditCards\":\"True\",\"NoiseLevel\":\"u'average'\"}","categories":"Restaurants, Chinese, Mexican","hours":"NULL"},{"business_id":"SLYdxtNbPxVlRwakPkbAEw","name":"Abington Pharmacy","address":"1460 Old York Rd","city":"Abington","state":"PA","postal_code":"19001","latitude":40.1236,"longitude":-75.1178,"stars":4.0,"review_count":15,"is_open":1,"attributes":"{\"BusinessAcceptsCreditCards\":\"True\",\"BusinessParking\":\"{'garage': False, 'street': False, 'validated': False, 'lot': True, 'valet': False}\",\"RestaurantsPriceRange2\":\"2\"}","categories":"Food, Flowers & Gifts, Event Planning & Services, Shopping, Specialty Food, Arts & Crafts, Candy Stores, Cards & Stationery, Drugstores","hours":"NULL"},{"business_id":"kU4cc79XzJfB1sIRmA09ZQ","name":"Roman Delight","address":"1418 Old York Rd","city":"Abington","state":"PA","postal_code":"19001","latitude":40.1216,"longitude":-75.1182,"stars":3.5,"review_count":80,"is_open":1,"attributes":"{\"RestaurantsAttire\":\"'casual'\",\"BusinessParking\":\"{'garage': False, 'street': False, 'validated': False, 'lot': True, 'valet': False}\",\"RestaurantsReservations\":\"False\",\"BusinessAcceptsCreditCards\":\"True\",\"GoodForKids\":\"True\",\"RestaurantsGoodForGroups\":\"True\",\"NoiseLevel\":\"'average'\",\"Alcohol\":\"u'beer_and_wine'\",\"BikeParking\":\"True\",\"RestaurantsTakeOut\":\"True\",\"HasTV\":\"True\",\"OutdoorSeating\":\"False\",\"Caters\":\"True\",\"Ambience\":\"{'romantic': False, 'intimate': False, 'classy': False, 'hipster': False, 'divey': False, 'touristy': False, 'trendy': False, 'upscale': False, 'casual': True}\",\"RestaurantsTableService\":\"True\",\"RestaurantsPriceRange2\":\"2\",\"GoodForMeal\":\"{'dessert': False, 'latenight': False, 'lunch': True, 'dinner': True, 'brunch': False, 'breakfast': False}\",\"DogsAllowed\":\"False\",\"WiFi\":\"u'free'\",\"WheelchairAccessible\":\"True\",\"RestaurantsDelivery\":\"None\"}","categories":"Restaurants, Caterers, Pizza, Event Planning & Services, Italian","hours":"{\"Tuesday\":\"12:0-21:0\",\"Wednesday\":\"12:0-21:0\",\"Thursday\":\"12:0-21:0\",\"Friday\":\"12:0-21:0\",\"Saturday\":\"12:0-21:0\",\"Sunday\":\"16:0-20:0\"}"},{"business_id":"UakNLXnT064AxmsTa_2iEw","name":"Target Optical","address":"1495 Old York Rd","city":"Abington","state":"PA","postal_code":"19001","latitude":40.1254,"longitude":-75.1159,"stars":2.0,"review_count":5,"is_open":1,"attributes":"{\"BikeParking\":\"False\",\"RestaurantsPriceRange2\":\"3\",\"BusinessParking\":\"{'garage': False, 'street': False, 'validated': False, 'lot': False, 'valet': False}\",\"BusinessAcceptsCreditCards\":\"True\"}","categories":"Eyewear & Opticians, Shopping, Health & Medical, Optometrists","hours":"{\"Monday\":\"10:0-20:0\",\"Tuesday\":\"10:0-20:0\",\"Wednesday\":\"10:0-20:0\",\"Thursday\":\"10:0-20:0\",\"Friday\":\"10:0-20:0\",\"Saturday\":\"9:0-18:0\",\"Sunday\":\"12:0-16:0\"}"},{"business_id":"LMd312IyPyPJiV16Sqc_4A","name":"Crafty Crab","address":"1482 Old York Rd","city":"Abington","state":"PA","postal_code":"19001","latitude":40.1248,"longitude":-75.1178,"stars":3.0,"review_count":33,"is_open":1,"attributes":"{\"Caters\":\"True\",\"BusinessParking\":\"{'garage': False, 'street': False, 'validated': False, 'lot': False, 'valet': False}\",\"OutdoorSeating\":\"True\",\"RestaurantsTakeOut\":\"True\",\"RestaurantsReservations\":\"True\",\"RestaurantsDelivery\":\"None\",\"BusinessAcceptsCreditCards\":\"True\",\"HasTV\":\"True\",\"WheelchairAccessible\":\"True\"}","categories":"Restaurants, Seafood, Nightlife, Bars, Cajun\/Creole","hours":"{\"Monday\":\"12:0-22:0\",\"Tuesday\":\"12:0-22:0\",\"Wednesday\":\"12:0-22:0\",\"Thursday\":\"12:0-22:0\",\"Friday\":\"12:0-23:0\",\"Saturday\":\"12:0-23:0\",\"Sunday\":\"12:0-22:0\"}"},{"business_id":"k1PnkLtNx6whR-4fxKBAKw","name":"Collaborative Care of Abington","address":"1369 Old York Rd","city":"Abington","state":"PA","postal_code":"19001","latitude":40.1212,"longitude":-75.1176,"stars":2.0,"review_count":7,"is_open":1,"attributes":"NULL","categories":"Doctors, Counseling & Mental Health, Psychiatrists, Health & Medical","hours":"NULL"},{"business_id":"kfW3-LmZlKrXq3RndVXxdg","name":"Pho Ben City","address":"1844 Old York Rd","city":"Abington","state":"PA","postal_code":"19001","latitude":40.1367,"longitude":-75.1143,"stars":4.0,"review_count":124,"is_open":1,"attributes":"{\"RestaurantsDelivery\":\"False\",\"Caters\":\"True\",\"OutdoorSeating\":\"False\",\"Ambience\":\"{'touristy': None, 'hipster': None, 'romantic': False, 'divey': False, 'intimate': None, 'trendy': False, 'upscale': False, 'classy': False, 'casual': True}\",\"BusinessParking\":\"{'garage': False, 'street': False, 'validated': False, 'lot': True, 'valet': False}\",\"NoiseLevel\":\"'quiet'\",\"RestaurantsTableService\":\"True\",\"RestaurantsReservations\":\"True\",\"WiFi\":\"u'free'\",\"ByAppointmentOnly\":\"False\",\"RestaurantsGoodForGroups\":\"True\",\"HasTV\":\"True\",\"GoodForMeal\":\"{'dessert': False, 'latenight': False, 'lunch': True, 'dinner': True, 'brunch': False, 'breakfast': False}\",\"RestaurantsTakeOut\":\"True\",\"RestaurantsPriceRange2\":\"2\",\"RestaurantsAttire\":\"u'casual'\",\"HappyHour\":\"False\",\"BikeParking\":\"True\",\"GoodForKids\":\"True\",\"BusinessAcceptsCreditCards\":\"True\",\"WheelchairAccessible\":\"True\",\"Alcohol\":\"u'none'\",\"DogsAllowed\":\"False\"}","categories":"Diners, Asian Fusion, Thai, Noodles, Breakfast & Brunch, Vietnamese, Restaurants, Vegetarian","hours":"{\"Monday\":\"0:0-0:0\",\"Tuesday\":\"11:0-21:0\",\"Thursday\":\"11:0-21:0\",\"Friday\":\"11:0-21:0\",\"Saturday\":\"10:30-21:30\",\"Sunday\":\"10:30-20:0\"}"},{"business_id":"UoxyIYP2Gf3ugrFiylyJrA","name":"Socialsport Dance Club","address":"1634 Old York Rd","city":"Abington","state":"PA","postal_code":"19001","latitude":40.1305,"longitude":-75.1167,"stars":3.5,"review_count":5,"is_open":1,"attributes":"{\"GoodForKids\":\"False\",\"BusinessAcceptsCreditCards\":\"True\",\"WheelchairAccessible\":\"True\",\"ByAppointmentOnly\":\"True\"}","categories":"Fitness & Instruction, Active Life, Dance Studios, Arts & Entertainment, Performing Arts, Education, Dance Schools, Specialty Schools","hours":"{\"Monday\":\"14:0-22:0\",\"Tuesday\":\"14:0-22:0\",\"Wednesday\":\"14:0-22:0\",\"Thursday\":\"14:0-22:0\",\"Friday\":\"14:0-22:0\"}"},{"business_id":"bSKXUH3M69T5FWPCP4qb4A","name":"Bonnet Lane Family Restaurant","address":"1720 Old York Rd","city":"Abington","state":"PA","postal_code":"19001","latitude":40.1326,"longitude":-75.1159,"stars":3.5,"review_count":79,"is_open":1,"attributes":"{\"Alcohol\":\"u'none'\",\"RestaurantsTakeOut\":\"True\",\"RestaurantsGoodForGroups\":\"True\",\"BusinessAcceptsCreditCards\":\"True\",\"RestaurantsDelivery\":\"False\",\"RestaurantsPriceRange2\":\"1\",\"OutdoorSeating\":\"False\",\"RestaurantsAttire\":\"u'casual'\",\"GoodForKids\":\"True\",\"NoiseLevel\":\"u'average'\",\"RestaurantsReservations\":\"False\",\"Caters\":\"False\",\"WiFi\":\"u'no'\",\"Ambience\":\"{'romantic': False, 'intimate': False, 'classy': False, 'hipster': False, 'divey': False, 'touristy': False, 'trendy': False, 'upscale': False, 'casual': True}\",\"BusinessParking\":\"{'garage': False, 'street': True, 'validated': False, 'lot': True, 'valet': False}\",\"BikeParking\":\"True\",\"HappyHour\":\"False\",\"GoodForMeal\":\"{'dessert': None, 'latenight': False, 'lunch': True, 'dinner': None, 'brunch': True, 'breakfast': True}\",\"DogsAllowed\":\"False\",\"HasTV\":\"True\",\"RestaurantsTableService\":\"True\"}","categories":"Breakfast & Brunch, American (Traditional), Diners, Restaurants","hours":"{\"Monday\":\"7:0-15:0\",\"Tuesday\":\"7:0-21:0\",\"Wednesday\":\"7:0-21:0\",\"Thursday\":\"7:0-21:0\",\"Friday\":\"7:0-21:0\",\"Saturday\":\"7:0-21:0\",\"Sunday\":\"7:0-15:0\"}"},{"business_id":"In06NU0oWu8zDgFJV68V0Q","name":"Run Around","address":"1351 Easton Rd","city":"Abington","state":"PA","postal_code":"19001","latitude":40.1273,"longitude":-75.1301,"stars":4.5,"review_count":5,"is_open":1,"attributes":"{\"BusinessAcceptsCreditCards\":\"True\",\"BusinessParking\":\"{'garage': False, 'street': False, 'validated': False, 'lot': True, 'valet': False}\",\"RestaurantsPriceRange2\":\"2\"}","categories":"Shopping, Shoe Stores, Fashion","hours":"{\"Monday\":\"10:0-20:0\",\"Tuesday\":\"10:0-20:0\",\"Wednesday\":\"10:0-20:0\",\"Thursday\":\"10:0-20:0\",\"Friday\":\"10:0-20:0\",\"Saturday\":\"10:0-18:0\",\"Sunday\":\"12:0-16:0\"}"},{"business_id":"-SKqEe8lzJOxJbZjcALFgw","name":"Dublin Woods Family Dentistry - Dental Care with a Heart","address":"1390 Fitzwatertown Rd","city":"Abington","state":"PA","postal_code":"19001","latitude":40.1389,"longitude":-75.1456,"stars":4.5,"review_count":8,"is_open":1,"attributes":"{\"ByAppointmentOnly\":\"True\",\"BusinessAcceptsCreditCards\":\"True\",\"WiFi\":\"u'free'\"}","categories":"Health & Medical, Dentists, General Dentistry","hours":"{\"Monday\":\"9:0-19:0\",\"Tuesday\":\"7:30-17:0\",\"Wednesday\":\"7:30-16:0\",\"Thursday\":\"7:30-21:30\",\"Friday\":\"8:0-13:0\",\"Saturday\":\"9:0-14:0\"}"},{"business_id":"ztpgAYui2YdOSGk7D610xw","name":"Lorimer Park","address":"183 Moredon Rd","city":"Abington Township","state":"PA","postal_code":"19006","latitude":40.097,"longitude":-75.0737,"stars":4.5,"review_count":7,"is_open":1,"attributes":"{\"BusinessParking\":\"{'garage': True, 'street': False, 'validated': False, 'lot': True, 'valet': False}\"}","categories":"Hiking, Fishing, Active Life, Parks","hours":"NULL"},{"business_id":"KEnCpmdX6Caor8lQMfcgIQ","name":"Diamond Street Photography","address":"","city":"Abington","state":"PA","postal_code":"19001","latitude":40.1314,"longitude":-75.137,"stars":5.0,"review_count":5,"is_open":1,"attributes":"{\"BusinessAcceptsCreditCards\":\"True\"}","categories":"Event Planning & Services, Photographers, Professional Services","hours":"{\"Monday\":\"9:0-0:0\",\"Tuesday\":\"9:0-0:0\",\"Wednesday\":\"9:0-0:0\",\"Thursday\":\"9:0-0:0\",\"Friday\":\"9:0-0:0\",\"Saturday\":\"9:0-0:0\",\"Sunday\":\"9:0-0:0\"}"},{"business_id":"Zio9jfLUtcqmO-O7dEB9Mg","name":"Nan Feng Asian Food Restaurant","address":"1825 Old York Rd","city":"Abington","state":"PA","postal_code":"19001","latitude":40.1356,"longitude":-75.1141,"stars":3.5,"review_count":22,"is_open":1,"attributes":"{\"BusinessAcceptsCreditCards\":\"True\",\"Caters\":\"True\",\"RestaurantsTakeOut\":\"True\",\"BYOB\":\"True\",\"RestaurantsDelivery\":\"True\",\"Corkage\":\"False\",\"WheelchairAccessible\":\"True\",\"OutdoorSeating\":\"False\",\"WiFi\":\"u'free'\",\"Alcohol\":\"u'none'\",\"BikeParking\":\"False\",\"RestaurantsTableService\":\"False\",\"HasTV\":\"False\"}","categories":"Sushi Bars, Thai, Asian Fusion, Restaurants","hours":"{\"Tuesday\":\"11:0-22:0\",\"Wednesday\":\"11:0-22:0\",\"Thursday\":\"11:0-22:0\",\"Friday\":\"11:0-23:0\",\"Saturday\":\"11:0-23:0\",\"Sunday\":\"13:0-22:0\"}"},{"business_id":"TeVMFL7ZmZy8145Qquc2Tg","name":"Fletcher's BBQ","address":"1409 Easton Rd","city":"Abington","state":"PA","postal_code":"19001","latitude":40.1295,"longitude":-75.1282,"stars":3.5,"review_count":25,"is_open":0,"attributes":"{\"BusinessAcceptsCreditCards\":\"True\",\"WiFi\":\"u'no'\",\"RestaurantsGoodForGroups\":\"False\",\"Caters\":\"True\",\"RestaurantsDelivery\":\"True\",\"Alcohol\":\"u'none'\",\"RestaurantsTakeOut\":\"True\",\"HasTV\":\"True\",\"OutdoorSeating\":\"False\",\"RestaurantsReservations\":\"False\",\"BusinessParking\":\"{'garage': False, 'street': False, 'validated': False, 'lot': True, 'valet': False}\",\"RestaurantsPriceRange2\":\"2\",\"GoodForKids\":\"True\",\"Ambience\":\"{'romantic': False, 'intimate': False, 'touristy': False, 'hipster': False, 'divey': True, 'classy': False, 'trendy': False, 'upscale': False, 'casual': True}\",\"NoiseLevel\":\"u'average'\",\"RestaurantsAttire\":\"u'casual'\"}","categories":"Barbeque, Southern, Restaurants","hours":"{\"Monday\":\"4:0-21:30\",\"Tuesday\":\"11:0-21:30\",\"Wednesday\":\"11:0-21:30\",\"Thursday\":\"11:0-21:30\",\"Friday\":\"11:0-22:0\",\"Saturday\":\"11:0-22:0\",\"Sunday\":\"11:0-21:30\"}"},{"business_id":"KFlexM7a0PbtrXHylmKDUg","name":"Nick's Barber Shop","address":"1308 Easton Rd","city":"Abington","state":"PA","postal_code":"19001","latitude":40.1271,"longitude":-75.1313,"stars":5.0,"review_count":7,"is_open":1,"attributes":"{\"BusinessParking\":\"{'garage': False, 'street': True, 'validated': False, 'lot': False, 'valet': False}\",\"BusinessAcceptsCreditCards\":\"False\",\"ByAppointmentOnly\":\"False\",\"RestaurantsPriceRange2\":\"2\"}","categories":"Barbers, Beauty & Spas","hours":"{\"Tuesday\":\"8:0-18:0\",\"Wednesday\":\"8:0-18:0\",\"Thursday\":\"8:0-18:0\",\"Friday\":\"8:0-18:0\",\"Saturday\":\"7:30-16:0\"}"},{"business_id":"afV_jsKOe0fWky2KeNuEbA","name":"Bryan Stuckert Plumbing","address":"2310 Heston St","city":"Abington","state":"PA","postal_code":"19001","latitude":40.1223,"longitude":-75.1334,"stars":5.0,"review_count":11,"is_open":1,"attributes":"NULL","categories":"Plumbing, Home Services","hours":"NULL"},{"business_id":"XTVlIRK2X9XYGCv-1OiaFw","name":"King and Queen Massage & Spa","address":"1930 Old York Rd","city":"Abington","state":"PA","postal_code":"19001","latitude":40.1385,"longitude":-75.1133,"stars":4.0,"review_count":45,"is_open":1,"attributes":"{\"AcceptsInsurance\":\"False\",\"BusinessAcceptsBitcoin\":\"False\",\"BusinessAcceptsCreditCards\":\"True\",\"RestaurantsPriceRange2\":\"2\",\"ByAppointmentOnly\":\"False\",\"WiFi\":\"u'free'\",\"BusinessParking\":\"{'garage': False, 'street': False, 'validated': False, 'lot': True, 'valet': False}\",\"WheelchairAccessible\":\"True\",\"BikeParking\":\"True\"}","categories":"Reflexology, American (New), Health & Medical, Beauty & Spas, Massage, Restaurants, Day Spas, Massage Therapy","hours":"{\"Monday\":\"0:0-0:0\",\"Tuesday\":\"10:0-21:0\",\"Wednesday\":\"10:0-21:0\",\"Thursday\":\"10:0-21:0\",\"Friday\":\"10:0-21:0\",\"Saturday\":\"10:0-21:0\",\"Sunday\":\"10:0-19:0\"}"},{"business_id":"sheBUH9Bao7AtMKy3U-MBQ","name":"The Junkluggers of Philadelphia & Montgomery County","address":"1438 Easton Ave","city":"Abington","state":"PA","postal_code":"19001","latitude":40.1308,"longitude":-75.1284,"stars":5.0,"review_count":40,"is_open":1,"attributes":"{\"ByAppointmentOnly\":\"False\",\"BusinessAcceptsBitcoin\":\"False\",\"BusinessAcceptsCreditCards\":\"True\"}","categories":"Local Services, Junk Removal & Hauling","hours":"{\"Monday\":\"0:0-0:0\",\"Tuesday\":\"8:0-18:0\",\"Wednesday\":\"8:0-18:0\",\"Thursday\":\"8:0-18:0\",\"Friday\":\"8:0-15:0\",\"Saturday\":\"8:0-18:0\",\"Sunday\":\"8:0-18:0\"}"},{"business_id":"rUhuAWQ9SHF4o9iLqhkjiQ","name":"BB&T Bank","address":"990 Old York Rd","city":"Abington","state":"PA","postal_code":"19001","latitude":40.1104,"longitude":-75.1238,"stars":1.0,"review_count":5,"is_open":0,"attributes":"NULL","categories":"Banks & Credit Unions, Financial Services","hours":"{\"Monday\":\"9:0-17:0\",\"Tuesday\":\"9:0-17:0\",\"Wednesday\":\"9:0-17:0\",\"Thursday\":\"9:0-17:0\",\"Friday\":\"9:0-18:0\",\"Saturday\":\"9:0-12:0\"}"},{"business_id":"4dlSOdSHVFhj9QGTjoPIbg","name":"George's Fish & Fries","address":"411 Township Line Rd","city":"Abington","state":"PA","postal_code":"19027","latitude":40.0739,"longitude":-75.1044,"stars":3.0,"review_count":5,"is_open":1,"attributes":"{\"BusinessParking\":\"{'garage': False, 'street': False, 'validated': False, 'lot': True, 'valet': False}\",\"RestaurantsDelivery\":\"True\",\"RestaurantsTakeOut\":\"True\"}","categories":"Restaurants, Seafood, American (Traditional)","hours":"{\"Monday\":\"11:0-21:0\",\"Tuesday\":\"11:0-21:0\",\"Wednesday\":\"11:0-21:0\",\"Thursday\":\"11:0-21:0\",\"Friday\":\"11:0-21:0\",\"Saturday\":\"11:0-21:0\"}"},{"business_id":"rkqsFfbdeuXevR4Z3VgFuA","name":"McDonald's","address":"1663 Old York Rd","city":"Abington","state":"PA","postal_code":"19001","latitude":40.1312,"longitude":-75.1158,"stars":1.5,"review_count":84,"is_open":1,"attributes":"{\"RestaurantsGoodForGroups\":\"True\",\"RestaurantsPriceRange2\":\"1\",\"RestaurantsTakeOut\":\"True\",\"Alcohol\":\"u'none'\",\"RestaurantsAttire\":\"u'casual'\",\"GoodForKids\":\"True\",\"Caters\":\"False\",\"OutdoorSeating\":\"False\",\"Ambience\":\"{'romantic': False, 'intimate': False, 'classy': False, 'hipster': False, 'divey': False, 'touristy': False, 'trendy': False, 'upscale': False, 'casual': False}\",\"HasTV\":\"True\",\"BusinessAcceptsCreditCards\":\"True\",\"RestaurantsReservations\":\"False\",\"NoiseLevel\":\"'average'\",\"WiFi\":\"u'free'\",\"DriveThru\":\"True\",\"BikeParking\":\"False\",\"BusinessParking\":\"{'garage': False, 'street': False, 'validated': False, 'lot': True, 'valet': False}\",\"RestaurantsDelivery\":\"True\"}","categories":"Restaurants, Coffee & Tea, Burgers, Fast Food, Food","hours":"{\"Monday\":\"6:0-23:0\",\"Tuesday\":\"6:0-23:0\",\"Wednesday\":\"6:0-23:0\",\"Thursday\":\"6:0-23:0\",\"Friday\":\"6:0-23:0\",\"Saturday\":\"6:0-23:0\",\"Sunday\":\"6:0-23:0\"}"},{"business_id":"zyeDagSsnfdVUWIvt8WiqA","name":"Target","address":"1495 Old York Rd","city":"Abington","state":"PA","postal_code":"19001","latitude":40.1248,"longitude":-75.1162,"stars":3.0,"review_count":48,"is_open":1,"attributes":"{\"BusinessParking\":\"{'garage': False, 'street': False, 'validated': False, 'lot': True, 'valet': False}\",\"BusinessAcceptsCreditCards\":\"True\",\"BikeParking\":\"True\",\"HappyHour\":\"False\",\"DogsAllowed\":\"False\",\"RestaurantsReservations\":\"False\",\"RestaurantsPriceRange2\":\"2\",\"RestaurantsTableService\":\"False\",\"RestaurantsTakeOut\":\"None\",\"ByAppointmentOnly\":\"False\",\"WiFi\":\"u'no'\",\"Caters\":\"False\",\"CoatCheck\":\"False\",\"RestaurantsDelivery\":\"False\",\"HasTV\":\"False\",\"WheelchairAccessible\":\"True\",\"OutdoorSeating\":\"False\"}","categories":"Fashion, Department Stores, Shopping, Home & Garden, Electronics, Food, Grocery, Furniture Stores","hours":"{\"Monday\":\"0:0-0:0\",\"Tuesday\":\"7:0-23:59\",\"Wednesday\":\"7:0-23:59\",\"Thursday\":\"7:0-23:59\",\"Friday\":\"8:0-21:0\",\"Saturday\":\"7:0-23:59\",\"Sunday\":\"7:0-22:0\"}"},{"business_id":"cNF1m8e1-hkBfHmZyqdfIw","name":"Bubby's Auto Tags & Insurance","address":"1633 Old York Rd","city":"Abington","state":"PA","postal_code":"19001","latitude":40.1301,"longitude":-75.1161,"stars":5.0,"review_count":9,"is_open":1,"attributes":"{\"BusinessAcceptsCreditCards\":\"False\"}","categories":"Financial Services, Local Services, Insurance, Notaries","hours":"{\"Monday\":\"9:0-17:0\",\"Tuesday\":\"9:0-17:0\",\"Wednesday\":\"9:0-17:0\",\"Thursday\":\"9:0-17:0\",\"Friday\":\"9:0-17:0\"}"},{"business_id":"ETZK5PuCsVfQ7ElXckDTPw","name":"Ban Ban Asian Bistro","address":"1533 Old York Rd","city":"Abington","state":"PA","postal_code":"19001","latitude":40.1271,"longitude":-75.1167,"stars":3.5,"review_count":186,"is_open":1,"attributes":"{\"Alcohol\":\"u'none'\",\"WiFi\":\"u'free'\",\"RestaurantsDelivery\":\"True\",\"Caters\":\"True\",\"GoodForMeal\":\"{'dessert': False, 'latenight': False, 'lunch': True, 'dinner': True, 'brunch': False, 'breakfast': False}\",\"BusinessAcceptsCreditCards\":\"True\",\"RestaurantsReservations\":\"True\",\"WheelchairAccessible\":\"True\",\"GoodForKids\":\"True\",\"RestaurantsGoodForGroups\":\"True\",\"OutdoorSeating\":\"False\",\"BusinessAcceptsBitcoin\":\"False\",\"RestaurantsPriceRange2\":\"2\",\"DogsAllowed\":\"False\",\"NoiseLevel\":\"u'average'\",\"HappyHour\":\"False\",\"HasTV\":\"False\",\"BikeParking\":\"False\",\"BusinessParking\":\"{'garage': False, 'street': False, 'validated': False, 'lot': True, 'valet': False}\",\"RestaurantsTableService\":\"True\",\"RestaurantsTakeOut\":\"True\",\"Ambience\":\"{'touristy': False, 'hipster': False, 'romantic': False, 'divey': False, 'intimate': False, 'trendy': True, 'upscale': False, 'classy': True, 'casual': True}\",\"RestaurantsAttire\":\"u'casual'\"}","categories":"Food, Restaurants, Bubble Tea, Asian Fusion, Sushi Bars, Chinese","hours":"{\"Monday\":\"11:30-21:30\",\"Tuesday\":\"11:30-21:30\",\"Wednesday\":\"11:30-21:30\",\"Thursday\":\"11:30-21:30\",\"Friday\":\"11:30-22:30\",\"Saturday\":\"11:30-22:30\",\"Sunday\":\"12:0-21:0\"}"},{"business_id":"YvaccJaSqbCNOYsEqWBSCw","name":"Banh Street","address":"1062 Tyson Ave","city":"Abington","state":"PA","postal_code":"19001","latitude":40.12,"longitude":-75.1347,"stars":4.5,"review_count":114,"is_open":0,"attributes":"{\"GoodForKids\":\"True\",\"RestaurantsTableService\":\"False\",\"HasTV\":\"False\",\"BusinessParking\":\"{'garage': False, 'street': True, 'validated': False, 'lot': True, 'valet': False}\",\"RestaurantsDelivery\":\"True\",\"OutdoorSeating\":\"True\",\"RestaurantsGoodForGroups\":\"False\",\"DogsAllowed\":\"True\",\"BikeParking\":\"True\",\"RestaurantsPriceRange2\":\"1\",\"WiFi\":\"u'no'\",\"WheelchairAccessible\":\"True\",\"Caters\":\"True\",\"BusinessAcceptsBitcoin\":\"False\",\"BusinessAcceptsCreditCards\":\"True\",\"Ambience\":\"{'romantic': False, 'intimate': False, 'classy': False, 'hipster': False, 'divey': False, 'touristy': False, 'trendy': False, 'upscale': False, 'casual': True}\",\"RestaurantsTakeOut\":\"True\",\"RestaurantsAttire\":\"u'casual'\",\"NoiseLevel\":\"u'average'\",\"Alcohol\":\"u'none'\",\"GoodForMeal\":\"{'dessert': False, 'latenight': False, 'lunch': True, 'dinner': True, 'brunch': False, 'breakfast': False}\",\"RestaurantsReservations\":\"False\"}","categories":"Sandwiches, Vietnamese, Restaurants, American (Traditional)","hours":"{\"Monday\":\"11:0-20:0\",\"Tuesday\":\"11:0-20:0\",\"Wednesday\":\"11:0-20:0\",\"Thursday\":\"11:0-20:0\",\"Friday\":\"11:0-20:0\",\"Saturday\":\"11:0-20:0\",\"Sunday\":\"11:0-20:0\"}"},{"business_id":"Sy1YMqpEeFY2PP6FfABlYA","name":"Poppert & Company","address":"1815 Horace Ave","city":"Abington","state":"PA","postal_code":"19001","latitude":40.1159,"longitude":-75.1173,"stars":4.5,"review_count":7,"is_open":1,"attributes":"NULL","categories":"Tax Services, Accountants, Professional Services, Financial Services","hours":"NULL"},{"business_id":"pQTXVYFdIVtHPzVUm3W7qw","name":"Arte Salon","address":"1765 Old York Rd","city":"Abington","state":"PA","postal_code":"19001","latitude":40.1338,"longitude":-75.1151,"stars":5.0,"review_count":52,"is_open":1,"attributes":"{\"BusinessAcceptsCreditCards\":\"True\",\"RestaurantsPriceRange2\":\"2\",\"ByAppointmentOnly\":\"True\",\"GoodForKids\":\"True\",\"BusinessAcceptsBitcoin\":\"False\",\"BusinessParking\":\"{'garage': False, 'street': False, 'validated': False, 'lot': True, 'valet': False}\",\"BikeParking\":\"False\"}","categories":"Hair Stylists, Beauty & Spas, Hair Salons","hours":"{\"Monday\":\"0:0-0:0\",\"Tuesday\":\"10:0-16:0\",\"Thursday\":\"10:0-16:0\",\"Friday\":\"10:0-16:0\"}"},{"business_id":"1Hi_OCUDGKQ5c7cMzlOJQQ","name":"PM Pediatrics","address":"1495 Old York Rd","city":"Abington","state":"PA","postal_code":"19001","latitude":40.1253,"longitude":-75.1157,"stars":3.5,"review_count":7,"is_open":1,"attributes":"{\"BusinessAcceptsCreditCards\":\"True\",\"WiFi\":\"u'free'\",\"AcceptsInsurance\":\"True\"}","categories":"Doctors, Urgent Care, Health & Medical, Pediatricians","hours":"{\"Monday\":\"12:0-0:0\",\"Tuesday\":\"12:0-0:0\",\"Wednesday\":\"12:0-0:0\",\"Thursday\":\"12:0-0:0\",\"Friday\":\"12:0-20:0\",\"Saturday\":\"14:0-0:0\",\"Sunday\":\"10:0-22:0\"}"},{"business_id":"xU04OJtdN9XFmicHziwU9A","name":"Blinds To Go","address":"1936 Old York Rd","city":"Abington","state":"PA","postal_code":"19001","latitude":40.1386,"longitude":-75.1133,"stars":2.5,"review_count":15,"is_open":1,"attributes":"{\"BusinessAcceptsCreditCards\":\"True\",\"ByAppointmentOnly\":\"False\",\"BusinessAcceptsBitcoin\":\"False\"}","categories":"Shades & Blinds, Home Services, Interior Design","hours":"{\"Monday\":\"10:0-19:0\",\"Tuesday\":\"10:0-19:0\",\"Wednesday\":\"10:0-19:0\",\"Thursday\":\"10:0-19:0\",\"Friday\":\"10:0-19:0\",\"Saturday\":\"10:0-19:0\",\"Sunday\":\"12:0-17:0\"}"},{"business_id":"lNXBKLQhM1FhYELRcHmwtA","name":"Comprehensive Chiropractic & Rehab","address":"1422 Easton Rd","city":"Abington","state":"PA","postal_code":"19001","latitude":40.1301,"longitude":-75.1285,"stars":5.0,"review_count":6,"is_open":1,"attributes":"{\"ByAppointmentOnly\":\"True\"}","categories":"Massage Therapy, Acupuncture, Health & Medical, Professional Services, Chiropractors","hours":"{\"Monday\":\"9:0-20:0\",\"Tuesday\":\"9:0-15:0\",\"Wednesday\":\"9:0-19:30\",\"Friday\":\"9:0-18:30\"}"},{"business_id":"2uWtuSX33e2fKGQvpS6b7Q","name":"Beer World","address":"1409 Easton Rd","city":"Abington","state":"PA","postal_code":"19001","latitude":40.1293,"longitude":-75.1282,"stars":3.5,"review_count":12,"is_open":1,"attributes":"{\"BusinessAcceptsCreditCards\":\"True\",\"RestaurantsPriceRange2\":\"2\",\"Caters\":\"False\",\"BusinessParking\":\"{'garage': False, 'street': False, 'validated': False, 'lot': True, 'valet': False}\"}","categories":"Beer, Wine & Spirits, Food, Restaurants, Delis","hours":"{\"Monday\":\"9:0-21:0\",\"Tuesday\":\"9:0-21:0\",\"Wednesday\":\"9:0-21:0\",\"Thursday\":\"9:0-21:0\",\"Friday\":\"9:0-21:0\",\"Saturday\":\"9:0-21:0\",\"Sunday\":\"12:0-17:0\"}"},{"business_id":"tvGlen-jTl9alu0sU3bqgg","name":"OHot Cajun Seafood","address":"1429 Old York Rd","city":"Abington","state":"PA","postal_code":"19001","latitude":40.1232,"longitude":-75.1158,"stars":4.5,"review_count":31,"is_open":1,"attributes":"{\"WheelchairAccessible\":\"True\",\"Caters\":\"True\",\"HasTV\":\"True\",\"RestaurantsTableService\":\"True\",\"RestaurantsTakeOut\":\"True\",\"BikeParking\":\"True\",\"OutdoorSeating\":\"False\",\"BusinessAcceptsCreditCards\":\"True\",\"RestaurantsDelivery\":\"True\",\"BusinessParking\":\"{'garage': False, 'street': False, 'validated': False, 'lot': True, 'valet': False}\"}","categories":"Restaurants, Cajun\/Creole, Seafood","hours":"{\"Monday\":\"12:0-21:0\",\"Tuesday\":\"12:0-21:0\",\"Wednesday\":\"12:0-21:0\",\"Thursday\":\"12:0-21:0\",\"Friday\":\"12:0-22:0\",\"Saturday\":\"12:0-22:0\",\"Sunday\":\"12:0-21:0\"}"},{"business_id":"PUo5LZnjL6B7CS4cT8t3ug","name":"Hillside Cemetery","address":"2556 Susquehanna Rd","city":"Abington","state":"PA","postal_code":"19001","latitude":40.1251,"longitude":-75.1416,"stars":2.5,"review_count":15,"is_open":1,"attributes":"{\"BusinessAcceptsCreditCards\":\"True\"}","categories":"Funeral Services & Cemeteries, Local Services","hours":"{\"Monday\":\"9:0-17:0\",\"Tuesday\":\"9:0-17:0\",\"Wednesday\":\"9:0-17:0\",\"Thursday\":\"9:0-17:0\",\"Friday\":\"9:0-17:0\",\"Saturday\":\"10:0-15:0\",\"Sunday\":\"10:0-14:0\"}"},{"business_id":"pcCEUMSvRHeW-2OttkaFgg","name":"Baja Fresh Mexican Grill","address":"1437 Old York Rd","city":"Abington","state":"PA","postal_code":"19001","latitude":40.1225,"longitude":-75.1173,"stars":3.5,"review_count":6,"is_open":0,"attributes":"{\"Alcohol\":\"u'none'\",\"RestaurantsGoodForGroups\":\"True\",\"RestaurantsPriceRange2\":\"1\",\"RestaurantsDelivery\":\"False\",\"RestaurantsAttire\":\"u'casual'\",\"OutdoorSeating\":\"False\",\"BusinessAcceptsCreditCards\":\"True\",\"RestaurantsReservations\":\"False\",\"HasTV\":\"False\",\"RestaurantsTakeOut\":\"True\",\"NoiseLevel\":\"u'average'\",\"Ambience\":\"{'romantic': False, 'intimate': False, 'touristy': False, 'hipster': False, 'divey': False, 'classy': False, 'trendy': False, 'upscale': False, 'casual': False}\",\"Caters\":\"True\",\"GoodForKids\":\"True\",\"BusinessParking\":\"{'garage': False, 'street': False, 'validated': False, 'lot': True, 'valet': False}\"}","categories":"Restaurants, Mexican","hours":"NULL"},{"business_id":"uaBIJAmgeeK30m7QRTibtw","name":"Philly Pretzel Factory","address":"1836 Old York Rd","city":"Abington","state":"PA","postal_code":"19001","latitude":40.1363,"longitude":-75.1146,"stars":4.0,"review_count":8,"is_open":1,"attributes":"{\"RestaurantsPriceRange2\":\"1\",\"BikeParking\":\"False\",\"BusinessParking\":\"{'garage': False, 'street': False, 'validated': False, 'lot': True, 'valet': False}\",\"BusinessAcceptsCreditCards\":\"True\",\"Caters\":\"True\",\"RestaurantsTakeOut\":\"True\",\"RestaurantsDelivery\":\"True\"}","categories":"Food, Hot Dogs, Pretzels, Restaurants, Bakeries","hours":"NULL"},{"business_id":"4wuPcxmaE2SGQ0a4TPmXew","name":"Sincera Reproductive Medicine","address":"1245 Highland Ave, Ste 404, Abington Memorial Hospital, Price Medical Building","city":"Abington","state":"PA","postal_code":"19001","latitude":40.1337,"longitude":-75.1226,"stars":2.5,"review_count":27,"is_open":1,"attributes":"{\"ByAppointmentOnly\":\"True\",\"BusinessAcceptsCreditCards\":\"True\"}","categories":"Health & Medical, Fertility, Doctors","hours":"{\"Monday\":\"7:30-16:30\",\"Tuesday\":\"7:30-16:30\",\"Wednesday\":\"7:30-16:30\",\"Thursday\":\"7:30-16:30\",\"Friday\":\"7:30-16:30\"}"},{"business_id":"29B3_aD8CzjfuE0TIq07JA","name":"Lynn Nails & Spa","address":"1120 Old York Rd","city":"Abington","state":"PA","postal_code":"19001","latitude":40.1153,"longitude":-75.1217,"stars":4.0,"review_count":23,"is_open":1,"attributes":"{\"WiFi\":\"u'free'\",\"BusinessAcceptsCreditCards\":\"True\",\"ByAppointmentOnly\":\"False\",\"RestaurantsPriceRange2\":\"2\"}","categories":"Hair Removal, Beauty & Spas, Eyelash Service, Nail Salons, Waxing","hours":"{\"Monday\":\"10:0-19:0\",\"Tuesday\":\"10:0-19:0\",\"Wednesday\":\"10:0-19:0\",\"Thursday\":\"10:0-19:0\",\"Friday\":\"10:0-19:0\",\"Saturday\":\"10:0-18:0\",\"Sunday\":\"10:0-17:0\"}"}]