[{"business_id":"afV_jsKOe0fWky2KeNuEbA","name":"Bryan Stuckert Plumbing","address":"2310 Heston St","city":"Abington","state":"PA","postal_code":"19001","latitude":40.1223,"longitude":-75.1334,"stars":5.0,"review_count":11,"is_open":1,"attributes":"NULL","categories":"Plumbing, Home Services","hours":"NULL","distance":1144.8114031439},{"business_id":"yMBgE8VN05khK1yNpbZaRw","name":"a2b Technologies - a2b PC Repair","address":"1061 Easton Rd","city":"Abington","state":"PA","postal_code":"19001","latitude":40.1197,"longitude":-75.1348,"stars":5.0,"review_count":6,"is_open":1,"attributes":"{\"BusinessAcceptsCreditCards\":\"True\"}","categories":"Electronics Repair, Local Services, IT Services & Computer Repair, Shopping, Professional Services, Web Design, Computers","hours":"{\"Monday\":\"8:30-18:0\",\"Tuesday\":\"8:30-18:0\",\"Wednesday\":\"8:30-18:0\",\"Thursday\":\"8:30-18:0\",\"Friday\":\"8:30-18:0\",\"Saturday\":\"10:0-14:0\"}","distance":1453.7736248847},{"business_id":"H9iwWUxscr1s8N_blCFORQ","name":"StyleAndBeauty Bar","address":"1205 Easton Rd","city":"Abington","state":"PA","postal_code":"19001","latitude":40.1252,"longitude":-75.1326,"stars":5.0,"review_count":5,"is_open":1,"attributes":"{\"BikeParking\":\"True\",\"WheelchairAccessible\":\"True\",\"RestaurantsPriceRange2\":\"2\",\"BusinessAcceptsBitcoin\":\"False\",\"WiFi\":\"u'free'\",\"BusinessAcceptsCreditCards\":\"True\",\"BusinessParking\":\"{'garage': False, 'street': False, 'validated': False, 'lot': True, 'valet': False}\",\"ByAppointmentOnly\":\"True\"}","categories":"Eyelash Service, Beauty & Spas, Permanent Makeup, Eyebrow Services, Hair Removal, Makeup Artists, Waxing","hours":"{\"Monday\":\"9:0-19:0\",\"Tuesday\":\"9:0-19:0\",\"Wednesday\":\"9:0-19:0\",\"Thursday\":\"9:0-19:0\",\"Friday\":\"9:0-20:0\",\"Saturday\":\"9:0-20:0\"}","distance":843.8082789219},{"business_id":"730bVHXxxUl1Z6p_e8DdgA","name":"Mona N Patel, DMD","address":"1919 Susquehanna Rd","city":"Abington","state":"PA","postal_code":"19001","latitude":40.1152,"longitude":-75.1224,"stars":5.0,"review_count":9,"is_open":1,"attributes":"{\"ByAppointmentOnly\":\"True\",\"AcceptsInsurance\":\"True\",\"BusinessAcceptsCreditCards\":\"True\"}","categories":"Dentists, Health & Medical, Insurance, Cosmetic Dentists, Financial Services, General Dentistry","hours":"{\"Monday\":\"7:0-15:0\",\"Tuesday\":\"7:0-15:0\",\"Wednesday\":\"7:0-19:0\",\"Thursday\":\"7:0-15:0\"}","distance":1786.3428633374},{"business_id":"lVirNKheM7Ps8eVRt0IyOg","name":"2 Fat Dogs","address":"1156 Easton Rd","city":"Abington","state":"PA","postal_code":"19001","latitude":40.1232,"longitude":-75.1329,"stars":5.0,"review_count":85,"is_open":1,"attributes":"{\"Alcohol\":\"u'none'\",\"BusinessAcceptsCreditCards\":\"True\",\"GoodForMeal\":\"{'dessert': False, 'latenight': False, 'lunch': False, 'dinner': False, 'brunch': False, 'breakfast': False}\",\"Caters\":\"True\",\"HappyHour\":\"False\",\"RestaurantsTableService\":\"False\",\"RestaurantsTakeOut\":\"True\",\"GoodForKids\":\"True\",\"NoiseLevel\":\"u'quiet'\",\"RestaurantsAttire\":\"u'casual'\",\"BusinessParking\":\"{'garage': False, 'street': True, 'validated': False, 'lot': False, 'valet': False}\",\"ByAppointmentOnly\":\"False\",\"WheelchairAccessible\":\"True\",\"WiFi\":\"u'no'\",\"DogsAllowed\":\"False\",\"Ambience\":\"{'touristy': None, 'hipster': False, 'romantic': False, 'divey': False, 'intimate': False, 'trendy': False, 'upscale': False, 'classy': False, 'casual': True}\",\"RestaurantsDelivery\":\"False\",\"BikeParking\":\"True\",\"RestaurantsGoodForGroups\":\"False\",\"RestaurantsReservations\":\"False\",\"HasTV\":\"True\",\"BusinessAcceptsBitcoin\":\"False\",\"OutdoorSeating\":\"False\",\"RestaurantsPriceRange2\":\"1\"}","categories":"Restaurants, Soup, Sandwiches","hours":"{\"Monday\":\"0:0-0:0\",\"Tuesday\":\"11:30-15:0\",\"Wednesday\":\"11:30-15:0\",\"Thursday\":\"11:0-16:0\",\"Friday\":\"11:0-16:0\",\"Saturday\":\"12:0-15:30\"}","distance":1037.6603548745},{"business_id":"KFlexM7a0PbtrXHylmKDUg","name":"Nick's Barber Shop","address":"1308 Easton Rd","city":"Abington","state":"PA","postal_code":"19001","latitude":40.1271,"longitude":-75.1313,"stars":5.0,"review_count":7,"is_open":1,"attributes":"{\"BusinessParking\":\"{'garage': False, 'street': True, 'validated': False, 'lot': False, 'valet': False}\",\"BusinessAcceptsCreditCards\":\"False\",\"ByAppointmentOnly\":\"False\",\"RestaurantsPriceRange2\":\"2\"}","categories":"Barbers, Beauty & Spas","hours":"{\"Tuesday\":\"8:0-18:0\",\"Wednesday\":\"8:0-18:0\",\"Thursday\":\"8:0-18:0\",\"Friday\":\"8:0-18:0\",\"Saturday\":\"7:30-16:0\"}","distance":613.2435817992},{"business_id":"CZgkZ9U5E-pSOxTSDKBEGQ","name":"Cindy's Signature Dry Cleaners","address":"1318 Easton Rd","city":"Abington","state":"PA","postal_code":"19001","latitude":40.1277,"longitude":-75.131,"stars":5.0,"review_count":8,"is_open":1,"attributes":"{\"RestaurantsPriceRange2\":\"2\",\"BusinessAcceptsCreditCards\":\"True\",\"BusinessParking\":\"{'garage': False, 'street': False, 'validated': False, 'lot': False, 'valet': False}\"}","categories":"Laundry Services, Local Services, Dry Cleaning, Dry Cleaning & Laundry","hours":"{\"Monday\":\"8:0-18:0\",\"Tuesday\":\"8:0-18:0\",\"Wednesday\":\"8:0-18:0\",\"Thursday\":\"8:0-18:0\",\"Friday\":\"8:0-18:0\",\"Saturday\":\"8:0-16:0\"}","distance":548.8028085515},{"business_id":"FnDGqFj65MjENJMZ0ZXhgg","name":"Milan Hair Studio","address":"1822 Old York Rd","city":"Abington","state":"PA","postal_code":"19001","latitude":40.1277,"longitude":-75.1311,"stars":5.0,"review_count":5,"is_open":1,"attributes":"{\"RestaurantsPriceRange2\":\"2\",\"BusinessAcceptsCreditCards\":\"True\",\"BusinessParking\":\"{'garage': False, 'street': False, 'validated': False, 'lot': True, 'valet': False}\",\"GoodForKids\":\"True\",\"BikeParking\":\"False\",\"ByAppointmentOnly\":\"False\"}","categories":"Hair Salons, Beauty & Spas","hours":"{\"Tuesday\":\"13:0-20:0\",\"Wednesday\":\"10:0-14:0\",\"Thursday\":\"10:0-19:0\",\"Friday\":\"10:0-19:0\",\"Saturday\":\"9:30-15:33\"}","distance":555.153900375},{"business_id":"sheBUH9Bao7AtMKy3U-MBQ","name":"The Junkluggers of Philadelphia & Montgomery County","address":"1438 Easton Ave","city":"Abington","state":"PA","postal_code":"19001","latitude":40.1308,"longitude":-75.1284,"stars":5.0,"review_count":40,"is_open":1,"attributes":"{\"ByAppointmentOnly\":\"False\",\"BusinessAcceptsBitcoin\":\"False\",\"BusinessAcceptsCreditCards\":\"True\"}","categories":"Local Services, Junk Removal & Hauling","hours":"{\"Monday\":\"0:0-0:0\",\"Tuesday\":\"8:0-18:0\",\"Wednesday\":\"8:0-18:0\",\"Thursday\":\"8:0-18:0\",\"Friday\":\"8:0-15:0\",\"Saturday\":\"8:0-18:0\",\"Sunday\":\"8:0-18:0\"}","distance":188.3543132329},{"business_id":"KEnCpmdX6Caor8lQMfcgIQ","name":"Diamond Street Photography","address":"","city":"Abington","state":"PA","postal_code":"19001","latitude":40.1314,"longitude":-75.137,"stars":5.0,"review_count":5,"is_open":1,"attributes":"{\"BusinessAcceptsCreditCards\":\"True\"}","categories":"Event Planning & Services, Photographers, Professional Services","hours":"{\"Monday\":\"9:0-0:0\",\"Tuesday\":\"9:0-0:0\",\"Wednesday\":\"9:0-0:0\",\"Thursday\":\"9:0-0:0\",\"Friday\":\"9:0-0:0\",\"Saturday\":\"9:0-0:0\",\"Sunday\":\"9:0-0:0\"}","distance":919.2533975149},{"business_id":"R0mHWvY_JvI7kUTTym7C8Q","name":"AnBrea's Beauty Salon","address":"1166 Easton Road","city":"Abington","state":"PA","postal_code":"19001","latitude":40.1235,"longitude":-75.1331,"stars":5.0,"review_count":8,"is_open":1,"attributes":"{\"GoodForKids\":\"True\",\"BikeParking\":\"False\",\"RestaurantsPriceRange2\":\"2\",\"WheelchairAccessible\":\"True\",\"BusinessAcceptsCreditCards\":\"True\",\"BusinessParking\":\"{'garage': False, 'street': True, 'validated': False, 'lot': True, 'valet': False}\",\"ByAppointmentOnly\":\"True\",\"BusinessAcceptsBitcoin\":\"False\",\"WiFi\":\"u'no'\",\"HairSpecializesIn\":\"{'straightperms': False, 'coloring': True, 'extensions': True, 'africanamerican': True, 'curly': True, 'kids': False, 'perms': False, 'asian': True}\"}","categories":"Beauty & Spas, Hair Salons, Hair Stylists, Blow Dry\/Out Services","hours":"{\"Monday\":\"0:0-0:0\",\"Tuesday\":\"9:0-14:0\",\"Wednesday\":\"9:0-17:0\",\"Thursday\":\"9:0-17:0\",\"Friday\":\"9:0-17:0\",\"Saturday\":\"8:0-15:0\"}","distance":1019.6309342163},{"business_id":"6kRQOVhn7Kmdlhd1knHSlw","name":"Fanta-C Beauty Bar","address":"1713 Old York Rd","city":"Abington","state":"PA","postal_code":"19001","latitude":40.132,"longitude":-75.1156,"stars":5.0,"review_count":7,"is_open":1,"attributes":"{\"GoodForKids\":\"True\",\"ByAppointmentOnly\":\"False\",\"RestaurantsPriceRange2\":\"2\",\"BusinessAcceptsCreditCards\":\"True\"}","categories":"Hair Salons, Hair Stylists, Blow Dry\/Out Services, Makeup Artists, Hair Extensions, Nail Salons, Waxing, Beauty & Spas, Hair Removal","hours":"{\"Monday\":\"10:0-12:0\",\"Tuesday\":\"9:0-14:0\",\"Wednesday\":\"9:0-18:0\",\"Thursday\":\"9:0-18:0\",\"Friday\":\"9:0-19:0\",\"Saturday\":\"8:0-16:0\",\"Sunday\":\"10:0-15:0\"}","distance":908.0037188278},{"business_id":"lNXBKLQhM1FhYELRcHmwtA","name":"Comprehensive Chiropractic & Rehab","address":"1422 Easton Rd","city":"Abington","state":"PA","postal_code":"19001","latitude":40.1301,"longitude":-75.1285,"stars":5.0,"review_count":6,"is_open":1,"attributes":"{\"ByAppointmentOnly\":\"True\"}","categories":"Massage Therapy, Acupuncture, Health & Medical, Professional Services, Chiropractors","hours":"{\"Monday\":\"9:0-20:0\",\"Tuesday\":\"9:0-15:0\",\"Wednesday\":\"9:0-19:30\",\"Friday\":\"9:0-18:30\"}","distance":219.6606287896},{"business_id":"cNF1m8e1-hkBfHmZyqdfIw","name":"Bubby's Auto Tags & Insurance","address":"1633 Old York Rd","city":"Abington","state":"PA","postal_code":"19001","latitude":40.1301,"longitude":-75.1161,"stars":5.0,"review_count":9,"is_open":1,"attributes":"{\"BusinessAcceptsCreditCards\":\"False\"}","categories":"Financial Services, Local Services, Insurance, Notaries","hours":"{\"Monday\":\"9:0-17:0\",\"Tuesday\":\"9:0-17:0\",\"Wednesday\":\"9:0-17:0\",\"Thursday\":\"9:0-17:0\",\"Friday\":\"9:0-17:0\"}","distance":864.4855465381},{"business_id":"JbNgfr60iyvM3CJWgyqXkw","name":"Tom & Sons Auto Repair","address":"1945 Old York Rd","city":"Abington","state":"PA","postal_code":"19001","latitude":40.1384,"longitude":-75.1125,"stars":5.0,"review_count":49,"is_open":1,"attributes":"{\"BusinessAcceptsCreditCards\":\"True\",\"WiFi\":\"u'free'\"}","categories":"Tires, Oil Change Stations, Car Stereo Installation, Car Inspectors, Transmission Repair, Automotive, Auto Repair, Towing","hours":"{\"Monday\":\"0:0-0:0\",\"Tuesday\":\"8:0-17:0\",\"Wednesday\":\"8:0-17:0\",\"Thursday\":\"8:0-17:0\",\"Friday\":\"8:0-17:0\"}","distance":1426.0127729571},{"business_id":"pQTXVYFdIVtHPzVUm3W7qw","name":"Arte Salon","address":"1765 Old York Rd","city":"Abington","state":"PA","postal_code":"19001","latitude":40.1338,"longitude":-75.1151,"stars":5.0,"review_count":52,"is_open":1,"attributes":"{\"BusinessAcceptsCreditCards\":\"True\",\"RestaurantsPriceRange2\":\"2\",\"ByAppointmentOnly\":\"True\",\"GoodForKids\":\"True\",\"BusinessAcceptsBitcoin\":\"False\",\"BusinessParking\":\"{'garage': False, 'street': False, 'validated': False, 'lot': True, 'valet': False}\",\"BikeParking\":\"False\"}","categories":"Hair Stylists, Beauty & Spas, Hair Salons","hours":"{\"Monday\":\"0:0-0:0\",\"Tuesday\":\"10:0-16:0\",\"Thursday\":\"10:0-16:0\",\"Friday\":\"10:0-16:0\"}","distance":993.7000577753},{"business_id":"IgQc-apHYE_x3HQvxNgaBA","name":"Wayne Earp Home Improvements","address":"1337 Green Rd","city":"Abington","state":"PA","postal_code":"19001","latitude":40.1368,"longitude":-75.1458,"stars":5.0,"review_count":5,"is_open":1,"attributes":"{\"BusinessAcceptsCreditCards\":\"True\"}","categories":"Contractors, Carpenters, Home Services, Painters, Interior Design, Local Services, Glass & Mirrors, Handyman, Drywall Installation & Repair","hours":"{\"Monday\":\"8:0-17:0\",\"Tuesday\":\"8:0-17:0\",\"Wednesday\":\"8:0-17:0\",\"Thursday\":\"8:0-17:0\",\"Friday\":\"8:0-17:0\",\"Saturday\":\"8:0-17:0\"}","distance":1786.7119638067},{"business_id":"HNimzVqqW3pxF5CMd-WixA","name":"Belle Amie Hair Designs","address":"233 N Keswick Ave","city":"Abington","state":"PA","postal_code":"19038","latitude":40.1046,"longitude":-75.1468,"stars":5.0,"review_count":6,"is_open":1,"attributes":"{\"BusinessParking\":\"{'garage': False, 'street': True, 'validated': False, 'lot': False, 'valet': False}\",\"BusinessAcceptsCreditCards\":\"True\"}","categories":"Hair Salons, Beauty & Spas","hours":"{\"Tuesday\":\"10:0-19:0\",\"Wednesday\":\"10:0-20:0\",\"Thursday\":\"10:0-20:0\",\"Friday\":\"10:0-17:0\",\"Saturday\":\"9:0-15:0\"}","distance":3418.453095637},{"business_id":"eUnDw1oABEFGkHXAmHj43w","name":"Shannon Collins Photography","address":"","city":"Abington","state":"PA","postal_code":"19001","latitude":40.1245,"longitude":-75.1298,"stars":5.0,"review_count":10,"is_open":1,"attributes":"{\"BusinessAcceptsCreditCards\":\"True\"}","categories":"Event Planning & Services, Event Photography, Photographers, Session Photography","hours":"{\"Monday\":\"9:0-17:0\",\"Tuesday\":\"9:0-17:0\",\"Wednesday\":\"9:0-17:0\",\"Thursday\":\"9:0-17:0\",\"Friday\":\"9:0-17:0\",\"Saturday\":\"9:0-23:0\",\"Sunday\":\"9:0-23:0\"}","distance":784.9036481698},{"business_id":"6QiXS9ZsJKAyz96Xo-QZLA","name":"Mattress Outlet of Abington","address":"1518 Easton Rd","city":"Abington","state":"PA","postal_code":"19001","latitude":40.1316,"longitude":-75.1272,"stars":5.0,"review_count":10,"is_open":1,"attributes":"{\"BusinessAcceptsCreditCards\":\"True\",\"BusinessParking\":\"{'garage': False, 'street': False, 'validated': False, 'lot': True, 'valet': False}\",\"BikeParking\":\"True\",\"BusinessAcceptsBitcoin\":\"False\",\"RestaurantsPriceRange2\":\"1\"}","categories":"Furniture Stores, Shopping, Mattresses, Home & Garden","hours":"{\"Monday\":\"12:0-18:0\",\"Tuesday\":\"12:0-18:0\",\"Wednesday\":\"12:0-18:0\",\"Thursday\":\"12:0-18:0\",\"Friday\":\"12:0-17:0\",\"Saturday\":\"12:0-17:0\",\"Sunday\":\"12:0-15:0\"}","distance":108.0690204599},{"business_id":"5BJVmYyAY87tWTRhv1Vfog","name":"Willard Pest Control","address":"","city":"Abington","state":"PA","postal_code":"19001","latitude":40.1318,"longitude":-75.1377,"stars":5.0,"review_count":7,"is_open":1,"attributes":"{\"BusinessAcceptsCreditCards\":\"False\",\"ByAppointmentOnly\":\"False\"}","categories":"Pest Control, Local Services","hours":"{\"Monday\":\"0:0-0:0\",\"Tuesday\":\"0:0-0:0\",\"Wednesday\":\"0:0-0:0\",\"Thursday\":\"0:0-0:0\",\"Friday\":\"0:0-0:0\",\"Saturday\":\"0:0-0:0\",\"Sunday\":\"0:0-0:0\"}","distance":981.7238579203},{"business_id":"NmzXH-HdWp-Sxdfnw3imUQ","name":"Emoji Sushi & Teriyaki","address":"1600 Old York Rd","city":"Abington","state":"PA","postal_code":"19001","latitude":40.1297,"longitude":-75.1169,"stars":5.0,"review_count":13,"is_open":1,"attributes":"{\"HasTV\":\"True\",\"WheelchairAccessible\":\"True\",\"BusinessParking\":\"{u'valet': False, u'garage': False, u'street': False, u'lot': True, u'validated': False}\",\"RestaurantsDelivery\":\"True\",\"GoodForKids\":\"True\",\"WiFi\":\"u'free'\",\"BikeParking\":\"False\",\"Alcohol\":\"u'none'\",\"RestaurantsTableService\":\"True\",\"Corkage\":\"False\",\"Ambience\":\"{u'divey': None, u'hipster': None, u'casual': None, u'touristy': None, u'trendy': None, u'intimate': None, u'romantic': None, u'classy': True, u'upscale': None}\",\"BusinessAcceptsCreditCards\":\"True\",\"Caters\":\"True\",\"OutdoorSeating\":\"False\",\"BYOB\":\"True\",\"RestaurantsTakeOut\":\"True\"}","categories":"Steakhouses, Restaurants, Japanese, Sushi Bars","hours":"{\"Tuesday\":\"11:0-21:30\",\"Wednesday\":\"11:0-21:30\",\"Thursday\":\"11:0-21:30\",\"Friday\":\"11:0-22:30\",\"Saturday\":\"11:0-22:0\",\"Sunday\":\"12:0-21:30\"}","distance":803.7675085728},{"business_id":"mRFCkMufO5mSue9M4fjvbQ","name":"Jay Freedman, DDS & Associates","address":"1260 Easton Rd","city":"Abington","state":"PA","postal_code":"19001","latitude":40.1268,"longitude":-75.1317,"stars":5.0,"review_count":6,"is_open":1,"attributes":"{\"ByAppointmentOnly\":\"True\"}","categories":"Dentists, Health & Medical, Cosmetic Dentists, Oral Surgeons, Periodontists, General Dentistry","hours":"{\"Monday\":\"8:0-17:0\",\"Tuesday\":\"8:0-20:0\",\"Wednesday\":\"8:0-20:0\",\"Friday\":\"8:0-18:0\"}","distance":660.8794660016}]