[{"business_id":"JmzNw0WCPmZPZdq5nx9brg","name":"Kitchen Bar","address":"1482 Old York Rd","city":"Abington","state":"PA","postal_code":"19001","latitude":40.1248,"longitude":-75.1178,"stars":2.5,"review_count":377,"is_open":0,"attributes":"{\"RestaurantsGoodForGroups\":\"True\",\"RestaurantsReservations\":\"True\",\"RestaurantsPriceRange2\":\"2\",\"BusinessAcceptsCreditCards\":\"True\",\"BusinessParking\":\"{'garage': False, 'street': False, 'validated': False, 'lot': True, 'valet': False}\",\"GoodForKids\":\"Tru","categories":"Event Planning & Services, Diners, Gluten-Free, Restaurants, American (Traditional), Venues & Event Spaces","hours":"{\"Monday\":\"8:0-2:0\",\"Tuesday\":\"8:0-2:0\",\"Wednesday\":\"8:0-2:0\",\"Thursday\":\"12:0-19:0\",\"Friday\":\"8:0-2:0\",\"Saturday\":\"8:0-2:0\",\"Sunday\":\"8:0-0:0\"}","distance":690.7896323105},{"business_id":"ETZK5PuCsVfQ7ElXckDTPw","name":"Ban Ban Asian Bistro","address":"1533 Old York Rd","city":"Abington","state":"PA","postal_code":"19001","latitude":40.1271,"longitude":-75.1167,"stars":3.5,"review_count":186,"is_open":1,"attributes":"{\"Alcohol\":\"u'none'\",\"WiFi\":\"u'free'\",\"RestaurantsDelivery\":\"True\",\"Caters\":\"True\",\"GoodForMeal\":\"{'dessert': False, 'latenight': False, 'lunch': True, 'dinner': True, 'brunch': False, 'breakfast': False}\",\"BusinessAcceptsCreditCards\":\"True\",\"RestaurantsR","categories":"Food, Restaurants, Bubble Tea, Asian Fusion, Sushi Bars, Chinese","hours":"{\"Monday\":\"11:30-21:30\",\"Tuesday\":\"11:30-21:30\",\"Wednesday\":\"11:30-21:30\",\"Thursday\":\"11:30-21:30\",\"Friday\":\"11:30-22:30\",\"Saturday\":\"11:30-22:30\",\"Sunday\":\"12:0-21:0\"}","distance":499.8159592145},{"business_id":"VaHG9BwrSZ-oNv0mGsTgiQ","name":"First Watch","address":"1423 Old York Rd","city":"Abington","state":"PA","postal_code":"19001","latitude":40.123,"longitude":-75.1162,"stars":3.5,"review_count":153,"is_open":1,"attributes":"{\"WiFi\":\"u'free'\",\"GoodForKids\":\"True\",\"NoiseLevel\":\"u'average'\",\"GoodForMeal\":\"{'dessert': None, 'latenight': None, 'lunch': None, 'dinner': None, 'brunch': True, 'breakfast': True}\",\"RestaurantsPriceRange2\":\"2\",\"HasTV\":\"True\",\"Alcohol\":\"u'none'\",\"Busine","categories":"American (Traditional), American (New), Cafes, Restaurants, Breakfast & Brunch","hours":"{\"Monday\":\"0:0-0:0\",\"Tuesday\":\"7:0-14:30\",\"Wednesday\":\"7:0-14:30\",\"Thursday\":\"7:0-14:30\",\"Friday\":\"7:0-14:30\",\"Saturday\":\"7:0-14:30\",\"Sunday\":\"7:0-14:30\"}","distance":727.8752815745},{"business_id":"nXx6nOAqC0DqVCUObuUsMA","name":"Lee's Hoagie House","address":"1656 Old York Rd","city":"Abington","state":"PA","postal_code":"19001","latitude":40.1313,"longitude":-75.1164,"stars":3.0,"review_count":103,"is_open":1,"attributes":"{\"WiFi\":\"'free'\",\"GoodForKids\":\"True\",\"RestaurantsReservations\":\"False\",\"OutdoorSeating\":\"False\",\"RestaurantsGoodForGroups\":\"True\",\"RestaurantsDelivery\":\"True\",\"HasTV\":\"True\",\"BusinessAcceptsCreditCards\":\"True\",\"RestaurantsAttire\":\"u'casual'\",\"BusinessPar","categories":"Wraps, Sandwiches, Chicken Wings, Restaurants, Cheesesteaks, Delis","hours":"{\"Monday\":\"10:0-21:0\",\"Tuesday\":\"10:0-21:0\",\"Wednesday\":\"10:0-21:0\",\"Thursday\":\"10:0-21:0\",\"Friday\":\"10:0-21:0\",\"Saturday\":\"10:0-21:0\",\"Sunday\":\"11:0-20:0\"}","distance":574.1011741822},{"business_id":"rkqsFfbdeuXevR4Z3VgFuA","name":"McDonald's","address":"1663 Old York Rd","city":"Abington","state":"PA","postal_code":"19001","latitude":40.1312,"longitude":-75.1158,"stars":1.5,"review_count":84,"is_open":1,"attributes":"{\"RestaurantsGoodForGroups\":\"True\",\"RestaurantsPriceRange2\":\"1\",\"RestaurantsTakeOut\":\"True\",\"Alcohol\":\"u'none'\",\"RestaurantsAttire\":\"u'casual'\",\"GoodForKids\":\"True\",\"Caters\":\"False\",\"OutdoorSeating\":\"False\",\"Ambience\":\"{'romantic': False, 'intimate': Fals","categories":"Restaurants, Coffee & Tea, Burgers, Fast Food, Food","hours":"{\"Monday\":\"6:0-23:0\",\"Tuesday\":\"6:0-23:0\",\"Wednesday\":\"6:0-23:0\",\"Thursday\":\"6:0-23:0\",\"Friday\":\"6:0-23:0\",\"Saturday\":\"6:0-23:0\",\"Sunday\":\"6:0-23:0\"}","distance":527.0808841695},{"business_id":"kU4cc79XzJfB1sIRmA09ZQ","name":"Roman Delight","address":"1418 Old York Rd","city":"Abington","state":"PA","postal_code":"19001","latitude":40.1216,"longitude":-75.1182,"stars":3.5,"review_count":80,"is_open":1,"attributes":"{\"RestaurantsAttire\":\"'casual'\",\"BusinessParking\":\"{'garage': False, 'street': False, 'validated': False, 'lot': True, 'valet': False}\",\"RestaurantsReservations\":\"False\",\"BusinessAcceptsCreditCards\":\"True\",\"GoodForKids\":\"True\",\"RestaurantsGoodForGroups\":\"","categories":"Restaurants, Caterers, Pizza, Event Planning & Services, Italian","hours":"{\"Tuesday\":\"12:0-21:0\",\"Wednesday\":\"12:0-21:0\",\"Thursday\":\"12:0-21:0\",\"Friday\":\"12:0-21:0\",\"Saturday\":\"12:0-21:0\",\"Sunday\":\"16:0-20:0\"}","distance":955.6919529549},{"business_id":"bSKXUH3M69T5FWPCP4qb4A","name":"Bonnet Lane Family Restaurant","address":"1720 Old York Rd","city":"Abington","state":"PA","postal_code":"19001","latitude":40.1326,"longitude":-75.1159,"stars":3.5,"review_count":79,"is_open":1,"attributes":"{\"Alcohol\":\"u'none'\",\"RestaurantsTakeOut\":\"True\",\"RestaurantsGoodForGroups\":\"True\",\"BusinessAcceptsCreditCards\":\"True\",\"RestaurantsDelivery\":\"False\",\"RestaurantsPriceRange2\":\"1\",\"OutdoorSeating\":\"False\",\"RestaurantsAttire\":\"u'casual'\",\"GoodForKids\":\"True\"","categories":"Breakfast & Brunch, American (Traditional), Diners, Restaurants","hours":"{\"Monday\":\"7:0-15:0\",\"Tuesday\":\"7:0-21:0\",\"Wednesday\":\"7:0-21:0\",\"Thursday\":\"7:0-21:0\",\"Friday\":\"7:0-21:0\",\"Saturday\":\"7:0-21:0\",\"Sunday\":\"7:0-15:0\"}","distance":642.5855672427},{"business_id":"F-eHPbdh9bl8aeYDRws4BQ","name":"Chipotle Mexican Grill","address":"1437 Old York Rd","city":"Abington","state":"PA","postal_code":"19001","latitude":40.1233,"longitude":-75.1159,"stars":2.0,"review_count":64,"is_open":1,"attributes":"{\"GoodForKids\":\"True\",\"RestaurantsAttire\":\"'casual'\",\"OutdoorSeating\":\"True\",\"BikeParking\":\"True\",\"RestaurantsReservations\":\"False\",\"DriveThru\":\"False\",\"BusinessAcceptsCreditCards\":\"True\",\"RestaurantsPriceRange2\":\"1\",\"Alcohol\":\"u'none'\",\"RestaurantsTableS","categories":"Mexican, Restaurants, Fast Food","hours":"{\"Monday\":\"0:0-0:0\",\"Tuesday\":\"10:45-22:0\",\"Wednesday\":\"10:45-22:0\",\"Thursday\":\"10:45-22:0\",\"Friday\":\"10:45-22:0\",\"Saturday\":\"10:45-22:0\",\"Sunday\":\"10:45-22:0\"}","distance":685.881918516},{"business_id":"Pw77mNz6cso9quMp2NwaiA","name":"Mr P Pizza & Pasta","address":"1427 Old York Rd","city":"Abington","state":"PA","postal_code":"19001","latitude":40.1231,"longitude":-75.1159,"stars":3.0,"review_count":61,"is_open":1,"attributes":"{\"Alcohol\":\"u'none'\",\"RestaurantsAttire\":\"'casual'\",\"GoodForKids\":\"True\",\"BusinessAcceptsCreditCards\":\"True\",\"BikeParking\":\"False\",\"NoiseLevel\":\"u'loud'\",\"Caters\":\"True\",\"Ambience\":\"{'touristy': False, 'hipster': False, 'romantic': False, 'divey': None, '","categories":"Restaurants, Pizza","hours":"{\"Monday\":\"10:0-22:0\",\"Tuesday\":\"10:0-22:0\",\"Wednesday\":\"10:0-22:0\",\"Thursday\":\"10:0-22:0\",\"Friday\":\"10:0-23:0\",\"Saturday\":\"10:0-23:0\",\"Sunday\":\"11:0-22:0\"}","distance":703.6782931079},{"business_id":"-ka45SR1nuoxUU4eTamE_w","name":"Abington All Star Bagel","address":"1825 Old York Rd","city":"Abington","state":"PA","postal_code":"19001","latitude":40.1357,"longitude":-75.1144,"stars":4.5,"review_count":58,"is_open":0,"attributes":"{\"RestaurantsReservations\":\"False\",\"BikeParking\":\"False\",\"OutdoorSeating\":\"False\",\"GoodForMeal\":\"{'dessert': False, 'latenight': False, 'lunch': True, 'dinner': False, 'brunch': True, 'breakfast': True}\",\"HasTV\":\"True\",\"Alcohol\":\"u'none'\",\"BusinessAccepts","categories":"Sandwiches, Coffee & Tea, Restaurants, Food, Delis, Breakfast & Brunch, Bagels","hours":"{\"Monday\":\"6:0-13:0\",\"Tuesday\":\"6:0-13:0\",\"Wednesday\":\"6:0-13:0\",\"Thursday\":\"6:0-13:0\",\"Friday\":\"6:0-13:0\",\"Saturday\":\"6:0-13:0\",\"Sunday\":\"6:0-13:0\"}","distance":882.6346084419},{"business_id":"pQTXVYFdIVtHPzVUm3W7qw","name":"Arte Salon","address":"1765 Old York Rd","city":"Abington","state":"PA","postal_code":"19001","latitude":40.1338,"longitude":-75.1151,"stars":5.0,"review_count":52,"is_open":1,"attributes":"{\"BusinessAcceptsCreditCards\":\"True\",\"RestaurantsPriceRange2\":\"2\",\"ByAppointmentOnly\":\"True\",\"GoodForKids\":\"True\",\"BusinessAcceptsBitcoin\":\"False\",\"BusinessParking\":\"{'garage': False, 'street': False, 'validated': False, 'lot': True, 'valet': False}\",\"Bik","categories":"Hair Stylists, Beauty & Spas, Hair Salons","hours":"{\"Monday\":\"0:0-0:0\",\"Tuesday\":\"10:0-16:0\",\"Thursday\":\"10:0-16:0\",\"Friday\":\"10:0-16:0\"}","distance":713.6137256219},{"business_id":"zyeDagSsnfdVUWIvt8WiqA","name":"Target","address":"1495 Old York Rd","city":"Abington","state":"PA","postal_code":"19001","latitude":40.1248,"longitude":-75.1162,"stars":3.0,"review_count":48,"is_open":1,"attributes":"{\"BusinessParking\":\"{'garage': False, 'street': False, 'validated': False, 'lot': True, 'valet': False}\",\"BusinessAcceptsCreditCards\":\"True\",\"BikeParking\":\"True\",\"HappyHour\":\"False\",\"DogsAllowed\":\"False\",\"RestaurantsReservations\":\"False\",\"RestaurantsPrice","categories":"Fashion, Department Stores, Shopping, Home & Garden, Electronics, Food, Grocery, Furniture Stores","hours":"{\"Monday\":\"0:0-0:0\",\"Tuesday\":\"7:0-23:59\",\"Wednesday\":\"7:0-23:59\",\"Thursday\":\"7:0-23:59\",\"Friday\":\"8:0-21:0\",\"Saturday\":\"7:0-23:59\",\"Sunday\":\"7:0-22:0\"}","distance":581.719609981},{"business_id":"71142Ice897c19VUQmVFLg","name":"Abington Nails","address":"1423 Old York Rd","city":"Abington","state":"PA","postal_code":"19001","latitude":40.1229,"longitude":-75.1161,"stars":2.5,"review_count":47,"is_open":1,"attributes":"{\"BusinessAcceptsCreditCards\":\"True\",\"RestaurantsPriceRange2\":\"2\",\"BusinessParking\":\"{'garage': False, 'street': False, 'validated': False, 'lot': True, 'valet': False}\",\"ByAppointmentOnly\":\"False\",\"BikeParking\":\"False\"}","categories":"Nail Salons, Beauty & Spas","hours":"NULL","distance":731.6689052765},{"business_id":"5N-93oMmm0MUt8HvyOot5A","name":"Boston Market","address":"1776 Old York Rd","city":"Abington","state":"PA","postal_code":"19001","latitude":40.1347,"longitude":-75.1154,"stars":2.0,"review_count":47,"is_open":1,"attributes":"{\"WiFi\":\"u'paid'\",\"RestaurantsTakeOut\":\"True\",\"RestaurantsReservations\":\"False\",\"OutdoorSeating\":\"False\",\"RestaurantsPriceRange2\":\"1\",\"RestaurantsGoodForGroups\":\"True\",\"GoodForKids\":\"True\",\"BusinessAcceptsCreditCards\":\"True\",\"BikeParking\":\"True\",\"Caters\":","categories":"Restaurants, Fast Food, Comfort Food, American (Traditional), Sandwiches, Chicken Shop, Caterers, Event Planning & Services","hours":"{\"Monday\":\"11:0-22:0\",\"Tuesday\":\"11:0-22:0\",\"Wednesday\":\"11:0-22:0\",\"Thursday\":\"11:0-22:0\",\"Friday\":\"11:0-22:0\",\"Saturday\":\"11:0-22:0\",\"Sunday\":\"11:0-21:0\"}","distance":813.8310660003},{"business_id":"R4BGGSaz0y5Bq2bCWDQAQg","name":"Tien Thai Pho","address":"1533 Old York Rd","city":"Abington","state":"PA","postal_code":"19001","latitude":40.1271,"longitude":-75.1167,"stars":3.0,"review_count":43,"is_open":0,"attributes":"{\"BusinessParking\":\"{'garage': False, 'street': False, 'validated': False, 'lot': True, 'valet': False}\",\"GoodForKids\":\"True\",\"Ambience\":\"{'romantic': False, 'intimate': False, 'touristy': False, 'hipster': False, 'divey': False, 'classy': False, 'trendy'","categories":"Restaurants, Thai, Vietnamese, Chinese","hours":"{\"Monday\":\"11:30-21:30\",\"Tuesday\":\"11:30-21:30\",\"Wednesday\":\"11:30-21:30\",\"Thursday\":\"11:30-21:30\",\"Friday\":\"11:30-22:0\",\"Saturday\":\"11:30-22:0\",\"Sunday\":\"11:30-20:30\"}","distance":499.8159592145},{"business_id":"zXnFTbBeqWP8A3YvmFme-Q","name":"Mavis Discount Tire","address":"1424 Old York Rd","city":"Abington","state":"PA","postal_code":"19001","latitude":40.1219,"longitude":-75.1181,"stars":4.0,"review_count":42,"is_open":1,"attributes":"{\"WiFi\":\"u'free'\",\"BusinessAcceptsCreditCards\":\"True\"}","categories":"Bike Rentals, Auto Repair, Oil Change Stations, Tires, Active Life, Automotive","hours":"{\"Monday\":\"0:0-0:0\",\"Tuesday\":\"8:0-18:0\",\"Wednesday\":\"8:0-18:0\",\"Thursday\":\"8:0-20:30\",\"Friday\":\"8:0-18:0\",\"Saturday\":\"8:0-17:0\",\"Sunday\":\"9:0-17:0\"}","distance":924.7475168479},{"business_id":"CJVdzc54avW4ZFiB3tTrkg","name":"South Sea Thai Kitchen","address":"1717 Old York Rd","city":"Abington","state":"PA","postal_code":"19001","latitude":40.1321,"longitude":-75.1155,"stars":4.5,"review_count":33,"is_open":1,"attributes":"{\"BusinessParking\":\"{'garage': False, 'street': False, 'validated': False, 'lot': True, 'valet': False}\",\"RestaurantsDelivery\":\"None\",\"RestaurantsTakeOut\":\"True\"}","categories":"Thai, Restaurants, Pan Asian, Asian Fusion","hours":"{\"Tuesday\":\"11:30-21:0\",\"Wednesday\":\"11:30-21:0\",\"Thursday\":\"11:30-21:0\",\"Friday\":\"11:30-21:0\",\"Saturday\":\"11:30-21:0\",\"Sunday\":\"11:30-21:0\"}","distance":578.2977550422},{"business_id":"LMd312IyPyPJiV16Sqc_4A","name":"Crafty Crab","address":"1482 Old York Rd","city":"Abington","state":"PA","postal_code":"19001","latitude":40.1248,"longitude":-75.1178,"stars":3.0,"review_count":33,"is_open":1,"attributes":"{\"Caters\":\"True\",\"BusinessParking\":\"{'garage': False, 'street': False, 'validated': False, 'lot': False, 'valet': False}\",\"OutdoorSeating\":\"True\",\"RestaurantsTakeOut\":\"True\",\"RestaurantsReservations\":\"True\",\"RestaurantsDelivery\":\"None\",\"BusinessAcceptsCre","categories":"Restaurants, Seafood, Nightlife, Bars, Cajun\/Creole","hours":"{\"Monday\":\"12:0-22:0\",\"Tuesday\":\"12:0-22:0\",\"Wednesday\":\"12:0-22:0\",\"Thursday\":\"12:0-22:0\",\"Friday\":\"12:0-23:0\",\"Saturday\":\"12:0-23:0\",\"Sunday\":\"12:0-22:0\"}","distance":690.7896323105},{"business_id":"tvGlen-jTl9alu0sU3bqgg","name":"OHot Cajun Seafood","address":"1429 Old York Rd","city":"Abington","state":"PA","postal_code":"19001","latitude":40.1232,"longitude":-75.1158,"stars":4.5,"review_count":31,"is_open":1,"attributes":"{\"WheelchairAccessible\":\"True\",\"Caters\":\"True\",\"HasTV\":\"True\",\"RestaurantsTableService\":\"True\",\"RestaurantsTakeOut\":\"True\",\"BikeParking\":\"True\",\"OutdoorSeating\":\"False\",\"BusinessAcceptsCreditCards\":\"True\",\"RestaurantsDelivery\":\"True\",\"BusinessParking\":\"{'","categories":"Restaurants, Cajun\/Creole, Seafood","hours":"{\"Monday\":\"12:0-21:0\",\"Tuesday\":\"12:0-21:0\",\"Wednesday\":\"12:0-21:0\",\"Thursday\":\"12:0-21:0\",\"Friday\":\"12:0-22:0\",\"Saturday\":\"12:0-22:0\",\"Sunday\":\"12:0-21:0\"}","distance":689.6831494422},{"business_id":"M2ffQ7_fv-XRnwYr7h4zZw","name":"Steak and Hoagie Factory","address":"1749 Old York Rd","city":"Abington","state":"PA","postal_code":"19001","latitude":40.1329,"longitude":-75.1151,"stars":3.5,"review_count":31,"is_open":1,"attributes":"{\"RestaurantsGoodForGroups\":\"True\",\"WiFi\":\"u'no'\",\"RestaurantsAttire\":\"u'casual'\",\"RestaurantsPriceRange2\":\"1\",\"Caters\":\"True\",\"HasTV\":\"True\",\"BusinessAcceptsCreditCards\":\"True\",\"BusinessParking\":\"{'garage': False, 'street': False, 'validated': False, 'lo","categories":"Burgers, Restaurants, Steakhouses, American (New), Cheesesteaks, Sandwiches","hours":"{\"Monday\":\"9:0-23:0\",\"Tuesday\":\"9:0-23:0\",\"Wednesday\":\"9:0-23:0\",\"Thursday\":\"9:0-23:0\",\"Friday\":\"9:0-0:0\",\"Saturday\":\"9:0-0:0\",\"Sunday\":\"9:0-23:0\"}","distance":628.1950244952},{"business_id":"MxNVMwWRoqhSYujo09oMtA","name":"CareSTAT Urgent Care","address":"1468 Old York Rd","city":"Abington","state":"PA","postal_code":"19001","latitude":40.1239,"longitude":-75.1177,"stars":2.5,"review_count":28,"is_open":0,"attributes":"{\"ByAppointmentOnly\":\"False\",\"BusinessAcceptsCreditCards\":\"True\"}","categories":"Urgent Care, Emergency Rooms, Doctors, Health & Medical, Family Practice, Medical Centers","hours":"{\"Monday\":\"8:0-20:0\",\"Tuesday\":\"8:0-20:0\",\"Wednesday\":\"8:0-20:0\",\"Thursday\":\"8:0-20:0\",\"Friday\":\"8:0-20:0\",\"Saturday\":\"8:0-20:0\",\"Sunday\":\"8:0-16:0\"}","distance":743.7206712821},{"business_id":"X62ejibJII2WlVIA4KKKaA","name":"Firestone Complete Auto Care","address":"1475 Old York Rd","city":"Abington","state":"PA","postal_code":"19001","latitude":40.1243,"longitude":-75.1172,"stars":2.5,"review_count":24,"is_open":1,"attributes":"{\"BusinessAcceptsCreditCards\":\"True\"}","categories":"Auto Repair, Auto Parts & Supplies, Automotive, Oil Change Stations, Tires","hours":"{\"Monday\":\"0:0-0:0\",\"Tuesday\":\"7:0-19:0\",\"Wednesday\":\"7:0-19:0\",\"Thursday\":\"7:0-19:0\",\"Friday\":\"7:0-16:0\",\"Saturday\":\"7:0-18:0\",\"Sunday\":\"9:0-17:0\"}","distance":682.5962197751},{"business_id":"Dz_TaJTV3CLbz3MHdc2tSw","name":"America's Best Contacts & Eyeglasses","address":"1495 Old York Rd","city":"Abington","state":"PA","postal_code":"19001","latitude":40.1253,"longitude":-75.1161,"stars":3.5,"review_count":22,"is_open":1,"attributes":"{\"BikeParking\":\"False\",\"RestaurantsPriceRange2\":\"2\",\"BusinessAcceptsCreditCards\":\"True\",\"BusinessParking\":\"{'garage': False, 'street': False, 'validated': False, 'lot': True, 'valet': False}\",\"ByAppointmentOnly\":\"False\"}","categories":"Eyewear & Opticians, Optometrists, Doctors, Health & Medical, Ophthalmologists, Shopping","hours":"{\"Monday\":\"0:0-0:0\",\"Tuesday\":\"9:0-18:0\",\"Wednesday\":\"9:0-15:0\",\"Thursday\":\"9:0-19:0\",\"Friday\":\"9:0-19:0\",\"Saturday\":\"9:0-18:0\"}","distance":540.3731067664},{"business_id":"Zio9jfLUtcqmO-O7dEB9Mg","name":"Nan Feng Asian Food Restaurant","address":"1825 Old York Rd","city":"Abington","state":"PA","postal_code":"19001","latitude":40.1356,"longitude":-75.1141,"stars":3.5,"review_count":22,"is_open":1,"attributes":"{\"BusinessAcceptsCreditCards\":\"True\",\"Caters\":\"True\",\"RestaurantsTakeOut\":\"True\",\"BYOB\":\"True\",\"RestaurantsDelivery\":\"True\",\"Corkage\":\"False\",\"WheelchairAccessible\":\"True\",\"OutdoorSeating\":\"False\",\"WiFi\":\"u'free'\",\"Alcohol\":\"u'none'\",\"BikeParking\":\"False\"","categories":"Sushi Bars, Thai, Asian Fusion, Restaurants","hours":"{\"Tuesday\":\"11:0-22:0\",\"Wednesday\":\"11:0-22:0\",\"Thursday\":\"11:0-22:0\",\"Friday\":\"11:0-23:0\",\"Saturday\":\"11:0-23:0\",\"Sunday\":\"13:0-22:0\"}","distance":864.0180932936},{"business_id":"5ErOKHjCoHh9tYrAxRVDEw","name":"Hair Cuttery","address":"1413 Old York Rd","city":"Abington","state":"PA","postal_code":"19001","latitude":40.1228,"longitude":-75.1164,"stars":3.5,"review_count":21,"is_open":1,"attributes":"{\"BusinessAcceptsCreditCards\":\"True\",\"RestaurantsPriceRange2\":\"1\",\"ByAppointmentOnly\":\"False\",\"BikeParking\":\"True\",\"BusinessParking\":\"{u'valet': False, u'garage': False, u'street': False, u'lot': True, u'validated': False}\",\"HairSpecializesIn\":\"{u'african","categories":"Hair Stylists, Men's Hair Salons, Beauty & Spas, Barbers, Hair Salons","hours":"{\"Monday\":\"0:0-0:0\",\"Tuesday\":\"9:0-21:0\",\"Wednesday\":\"9:0-21:0\",\"Thursday\":\"9:0-21:0\",\"Friday\":\"9:0-21:0\",\"Saturday\":\"8:0-19:0\",\"Sunday\":\"9:0-18:0\"}","distance":755.8708949264},{"business_id":"Thavh5iKWC0KYhYp5dEWeQ","name":"TJ Maxx","address":"1495 Old York Rd","city":"Abington","state":"PA","postal_code":"19001","latitude":40.1253,"longitude":-75.1157,"stars":2.5,"review_count":20,"is_open":1,"attributes":"{\"RestaurantsPriceRange2\":\"1\",\"BusinessAcceptsCreditCards\":\"True\",\"BusinessParking\":\"{'garage': False, 'street': False, 'validated': False, 'lot': True, 'valet': False}\",\"BikeParking\":\"False\"}","categories":"Department Stores, Shopping, Fashion","hours":"NULL","distance":513.4846425051},{"business_id":"sSpavSvNjMcA7MVyWZbNMw","name":"Corner Bakery Cafe","address":"1423 Old York Rd","city":"Abington","state":"PA","postal_code":"19001","latitude":40.1229,"longitude":-75.1161,"stars":3.5,"review_count":19,"is_open":0,"attributes":"{\"BusinessAcceptsCreditCards\":\"True\",\"GoodForKids\":\"True\",\"RestaurantsPriceRange2\":\"1\",\"RestaurantsDelivery\":\"False\",\"RestaurantsAttire\":\"'casual'\",\"Alcohol\":\"u'none'\",\"BikeParking\":\"False\",\"GoodForMeal\":\"{'dessert': False, 'latenight': False, 'lunch': Fa","categories":"Breakfast & Brunch, Food, American (New), Sandwiches, Food Delivery Services, Restaurants","hours":"{\"Monday\":\"6:30-21:0\",\"Tuesday\":\"6:30-21:0\",\"Wednesday\":\"6:30-21:0\",\"Thursday\":\"6:30-21:0\",\"Friday\":\"6:30-21:0\",\"Saturday\":\"6:30-21:0\",\"Sunday\":\"6:30-21:0\"}","distance":731.6689052765},{"business_id":"WukXhLVHz7CEBScS8EFB5w","name":"Spa Car Wash","address":"1515 Old York Rd","city":"Abington","state":"PA","postal_code":"19001","latitude":40.1264,"longitude":-75.1167,"stars":2.5,"review_count":18,"is_open":0,"attributes":"{\"BusinessAcceptsCreditCards\":\"True\"}","categories":"Automotive, Car Wash","hours":"NULL","distance":524.3262003367},{"business_id":"rPW3DuBGkPNcBU5uLIXcLQ","name":"Ken's Thai Cuisine","address":"1533 Old York Rd","city":"Abington","state":"PA","postal_code":"19001","latitude":40.1271,"longitude":-75.1167,"stars":4.0,"review_count":18,"is_open":0,"attributes":"{\"GoodForKids\":\"True\",\"RestaurantsDelivery\":\"True\",\"HasTV\":\"False\",\"BusinessAcceptsCreditCards\":\"True\",\"RestaurantsReservations\":\"True\",\"RestaurantsTakeOut\":\"True\",\"OutdoorSeating\":\"False\",\"RestaurantsAttire\":\"u'casual'\",\"GoodForMeal\":\"{'dessert': False, ","categories":"Thai, Restaurants","hours":"{\"Tuesday\":\"11:0-21:30\",\"Wednesday\":\"11:0-21:30\",\"Thursday\":\"11:0-21:30\",\"Friday\":\"11:0-22:0\",\"Saturday\":\"11:0-22:0\",\"Sunday\":\"15:0-20:0\"}","distance":499.8159592145},{"business_id":"pQ0WQwBPdpngQi_HdPYIag","name":"Thai Thanee","address":"1533 Old York Rd","city":"Abington","state":"PA","postal_code":"19001","latitude":40.127,"longitude":-75.1167,"stars":4.0,"review_count":18,"is_open":0,"attributes":"{\"RestaurantsGoodForGroups\":\"True\",\"GoodForKids\":\"True\",\"Alcohol\":\"u'none'\",\"RestaurantsTakeOut\":\"True\",\"RestaurantsPriceRange2\":\"2\",\"RestaurantsDelivery\":\"False\",\"RestaurantsReservations\":\"True\",\"BusinessAcceptsCreditCards\":\"True\",\"BusinessParking\":\"{'ga","categories":"Thai, Restaurants","hours":"{\"Tuesday\":\"11:30-21:30\",\"Wednesday\":\"11:30-21:30\",\"Thursday\":\"11:30-21:30\",\"Friday\":\"11:30-22:30\",\"Saturday\":\"11:30-22:30\",\"Sunday\":\"17:0-21:30\"}","distance":502.6530913865},{"business_id":"ot24x_gq8fDPxx0kUaz_JQ","name":"Chud Air Conditioning Heating","address":"1570 Old York Rd","city":"Abington","state":"PA","postal_code":"19001","latitude":40.1287,"longitude":-75.1171,"stars":3.0,"review_count":17,"is_open":1,"attributes":"{\"BusinessAcceptsCreditCards\":\"True\"}","categories":"Water Heater Installation\/Repair, Heating & Air Conditioning\/HVAC, Home Services","hours":"{\"Monday\":\"8:0-22:0\",\"Tuesday\":\"8:0-22:0\",\"Wednesday\":\"8:0-22:0\",\"Thursday\":\"8:0-22:0\",\"Friday\":\"8:0-22:0\",\"Saturday\":\"8:0-22:0\",\"Sunday\":\"8:0-22:0\"}","distance":521.5923873698},{"business_id":"qwteAVKlwDz1aDUAQQcfiA","name":"Hunan Village","address":"1431 Old York Rd","city":"Abington","state":"PA","postal_code":"19001","latitude":40.1232,"longitude":-75.1158,"stars":2.5,"review_count":16,"is_open":0,"attributes":"{\"RestaurantsAttire\":\"u'casual'\",\"RestaurantsTakeOut\":\"True\",\"GoodForKids\":\"True\",\"BusinessParking\":\"{'garage': False, 'street': False, 'validated': False, 'lot': False, 'valet': False}\",\"RestaurantsGoodForGroups\":\"True\",\"BusinessAcceptsCreditCards\":\"True","categories":"Restaurants, Chinese","hours":"NULL","distance":689.6831494422},{"business_id":"HkTXTnLmZMEY_2sW0c_bKg","name":"Juan's Reflexology","address":"1863-65 Old York Rd, Ste A","city":"Abington","state":"PA","postal_code":"19001","latitude":40.1368,"longitude":-75.1134,"stars":4.5,"review_count":16,"is_open":1,"attributes":"{\"RestaurantsPriceRange2\":\"2\",\"WheelchairAccessible\":\"False\",\"ByAppointmentOnly\":\"False\",\"BusinessAcceptsCreditCards\":\"True\",\"WiFi\":\"u'free'\",\"BusinessParking\":\"{'garage': False, 'street': False, 'validated': False, 'lot': False, 'valet': False}\",\"Accepts","categories":"Massage, Beauty & Spas, Health & Medical, Reflexology, Massage Therapy","hours":"{\"Monday\":\"9:30-21:30\",\"Tuesday\":\"9:30-21:30\",\"Wednesday\":\"9:30-21:30\",\"Thursday\":\"9:30-21:30\",\"Friday\":\"9:30-21:30\",\"Saturday\":\"9:30-21:30\",\"Sunday\":\"9:30-21:30\"}","distance":977.8010671882},{"business_id":"WZyr0I40FCeRnx3FOMmRsg","name":"Artware","address":"1495 Old York Rd, Ste 2","city":"Abington","state":"PA","postal_code":"19001","latitude":40.1252,"longitude":-75.1157,"stars":4.0,"review_count":16,"is_open":1,"attributes":"{\"RestaurantsPriceRange2\":\"2\",\"BusinessAcceptsCreditCards\":\"True\",\"ByAppointmentOnly\":\"False\",\"BikeParking\":\"True\",\"BusinessParking\":\"{'garage': False, 'street': False, 'validated': False, 'lot': True, 'valet': False}\"}","categories":"Jewelry, Shopping, Fashion, Watches, Accessories","hours":"{\"Monday\":\"10:0-20:0\",\"Tuesday\":\"10:0-20:0\",\"Wednesday\":\"10:0-20:0\",\"Thursday\":\"10:0-20:0\",\"Friday\":\"10:0-20:0\",\"Saturday\":\"9:0-21:0\",\"Sunday\":\"9:0-19:0\"}","distance":520.5397745606},{"business_id":"9G3YciHeZYY6qfVGHBCHJQ","name":"District Taco","address":"1475 Old York Rd","city":"Abington","state":"PA","postal_code":"19001","latitude":40.124,"longitude":-75.1162,"stars":3.5,"review_count":16,"is_open":1,"attributes":"{\"RestaurantsTakeOut\":\"None\",\"BusinessAcceptsCreditCards\":\"True\",\"Ambience\":\"{u'divey': None, u'hipster': False, u'casual': True, u'touristy': False, u'trendy': None, u'intimate': None, u'romantic': False, u'classy': False, u'upscale': None}\",\"Restaurants","categories":"Mexican, Restaurants, Breakfast & Brunch","hours":"{\"Monday\":\"0:0-0:0\",\"Tuesday\":\"11:0-21:0\",\"Wednesday\":\"11:0-21:0\",\"Thursday\":\"11:0-21:0\",\"Friday\":\"11:0-21:0\",\"Saturday\":\"11:0-21:0\",\"Sunday\":\"11:0-20:0\"}","distance":643.097986409},{"business_id":"SLYdxtNbPxVlRwakPkbAEw","name":"Abington Pharmacy","address":"1460 Old York Rd","city":"Abington","state":"PA","postal_code":"19001","latitude":40.1236,"longitude":-75.1178,"stars":4.0,"review_count":15,"is_open":1,"attributes":"{\"BusinessAcceptsCreditCards\":\"True\",\"BusinessParking\":\"{'garage': False, 'street': False, 'validated': False, 'lot': True, 'valet': False}\",\"RestaurantsPriceRange2\":\"2\"}","categories":"Food, Flowers & Gifts, Event Planning & Services, Shopping, Specialty Food, Arts & Crafts, Candy Stores, Cards & Stationery, Drugstores","hours":"NULL","distance":771.9414543514},{"business_id":"Uvh7cAuI4dFso3HKT2zHyw","name":"Goodfellas Pizzeria","address":"1717 Old York Rd","city":"Abington","state":"PA","postal_code":"19001","latitude":40.1321,"longitude":-75.1155,"stars":3.0,"review_count":15,"is_open":0,"attributes":"{\"Alcohol\":\"u'none'\",\"GoodForKids\":\"True\",\"RestaurantsDelivery\":\"True\",\"BusinessAcceptsBitcoin\":\"False\",\"RestaurantsTakeOut\":\"True\",\"OutdoorSeating\":\"False\",\"RestaurantsReservations\":\"False\",\"BikeParking\":\"True\",\"BusinessParking\":\"{'garage': False, 'stree","categories":"Caterers, Event Planning & Services, Restaurants, Food, Pizza, Halal","hours":"{\"Monday\":\"11:0-22:0\",\"Tuesday\":\"11:0-22:0\",\"Wednesday\":\"11:0-22:0\",\"Thursday\":\"11:0-22:0\",\"Friday\":\"11:0-23:0\",\"Saturday\":\"11:0-23:0\",\"Sunday\":\"11:0-22:0\"}","distance":578.2977550422},{"business_id":"l-LfqtfzzkNVDIFPJwuIYw","name":"Great Clips","address":"1475 Old York Rd","city":"Abington","state":"PA","postal_code":"19001","latitude":40.124,"longitude":-75.1157,"stars":2.5,"review_count":14,"is_open":1,"attributes":"{\"GoodForKids\":\"True\",\"RestaurantsPriceRange2\":\"1\",\"ByAppointmentOnly\":\"False\",\"BusinessAcceptsCreditCards\":\"True\",\"BikeParking\":\"True\",\"WheelchairAccessible\":\"True\",\"BusinessParking\":\"{'garage': False, 'street': True, 'validated': False, 'lot': False, 'v","categories":"Hair Salons, Beauty & Spas","hours":"{\"Monday\":\"9:0-21:0\",\"Tuesday\":\"9:0-21:0\",\"Wednesday\":\"9:0-21:0\",\"Thursday\":\"9:0-21:0\",\"Friday\":\"9:0-21:0\",\"Saturday\":\"8:0-18:0\",\"Sunday\":\"9:0-17:0\"}","distance":614.6479715043},{"business_id":"-UYMLGjgQ9kCTU24sVynYQ","name":"Abington Smile Center","address":"1501 Old York Rd","city":"Abington","state":"PA","postal_code":"19001","latitude":40.1261,"longitude":-75.1168,"stars":3.0,"review_count":14,"is_open":1,"attributes":"{\"BusinessAcceptsCreditCards\":\"True\",\"WiFi\":\"u'free'\",\"AcceptsInsurance\":\"True\",\"ByAppointmentOnly\":\"True\"}","categories":"Health & Medical, Dentists, Endodontists, Sleep Specialists, Cosmetic Dentists, General Dentistry, Urgent Care","hours":"{\"Monday\":\"0:0-0:0\",\"Tuesday\":\"9:0-18:0\",\"Wednesday\":\"9:0-18:0\",\"Thursday\":\"9:0-18:0\",\"Friday\":\"9:0-19:30\"}","distance":545.6172520218},{"business_id":"yI4oXmfpNBEyksq5GQQKgA","name":"Michaels","address":"1415 Old York Rd","city":"Abington","state":"PA","postal_code":"19001","latitude":40.1229,"longitude":-75.1166,"stars":3.0,"review_count":14,"is_open":1,"attributes":"{\"BikeParking\":\"True\",\"RestaurantsPriceRange2\":\"2\",\"BusinessParking\":\"{'garage': False, 'street': False, 'validated': False, 'lot': False, 'valet': False}\",\"BusinessAcceptsCreditCards\":\"True\"}","categories":"Hobby Shops, Shopping, Arts & Crafts, Knitting Supplies","hours":"{\"Monday\":\"0:0-0:0\",\"Tuesday\":\"9:0-18:0\",\"Wednesday\":\"10:0-19:0\",\"Thursday\":\"17:0-0:0\",\"Friday\":\"7:0-22:0\",\"Saturday\":\"8:0-22:0\",\"Sunday\":\"10:0-19:0\"}","distance":757.6374137715},{"business_id":"QF91-huELD0WLITuKaFMXQ","name":"Quest Diagnostics","address":"1419 Old York Rd","city":"Abington","state":"PA","postal_code":"19001","latitude":40.1227,"longitude":-75.1162,"stars":2.0,"review_count":13,"is_open":1,"attributes":"{\"AcceptsInsurance\":\"True\",\"ByAppointmentOnly\":\"False\",\"BusinessAcceptsCreditCards\":\"True\"}","categories":"Health & Medical, Laboratory Testing, Diagnostic Services","hours":"{\"Monday\":\"6:30-15:0\",\"Tuesday\":\"6:30-15:0\",\"Wednesday\":\"6:30-15:0\",\"Thursday\":\"6:30-15:0\",\"Friday\":\"6:30-15:0\",\"Saturday\":\"8:0-12:0\"}","distance":754.6474201291},{"business_id":"NmzXH-HdWp-Sxdfnw3imUQ","name":"Emoji Sushi & Teriyaki","address":"1600 Old York Rd","city":"Abington","state":"PA","postal_code":"19001","latitude":40.1297,"longitude":-75.1169,"stars":5.0,"review_count":13,"is_open":1,"attributes":"{\"HasTV\":\"True\",\"WheelchairAccessible\":\"True\",\"BusinessParking\":\"{u'valet': False, u'garage': False, u'street': False, u'lot': True, u'validated': False}\",\"RestaurantsDelivery\":\"True\",\"GoodForKids\":\"True\",\"WiFi\":\"u'free'\",\"BikeParking\":\"False\",\"Alcohol\":\"","categories":"Steakhouses, Restaurants, Japanese, Sushi Bars","hours":"{\"Tuesday\":\"11:0-21:30\",\"Wednesday\":\"11:0-21:30\",\"Thursday\":\"11:0-21:30\",\"Friday\":\"11:0-22:30\",\"Saturday\":\"11:0-22:0\",\"Sunday\":\"12:0-21:30\"}","distance":528.6165520143},{"business_id":"JJmr_7MHLKzYoFG_B6YdjA","name":"Nazar's Auto Sales","address":"1664 Old York Rd","city":"Abington","state":"PA","postal_code":"19001","latitude":40.1316,"longitude":-75.1163,"stars":4.5,"review_count":12,"is_open":1,"attributes":"NULL","categories":"Automotive, Car Dealers","hours":"NULL","distance":588.1901162706},{"business_id":"wRiJbVNZUkVxt2FtBW9U4g","name":"Shechtman Tree Care","address":"1722 Rockwell Rd","city":"Abington","state":"PA","postal_code":"19001","latitude":40.1327,"longitude":-75.1182,"stars":4.5,"review_count":12,"is_open":1,"attributes":"{\"BusinessAcceptsCreditCards\":\"True\",\"ByAppointmentOnly\":\"False\"}","categories":"Tree Services, Home Services","hours":"{\"Monday\":\"9:0-17:0\",\"Tuesday\":\"9:0-17:0\",\"Wednesday\":\"9:0-17:0\",\"Thursday\":\"9:0-17:0\",\"Friday\":\"9:0-17:0\"}","distance":790.6160963403},{"business_id":"Gs86IB67sCYAhsdkD5Am6g","name":"Frosty Caps Inc","address":"1745 Old York Rd","city":"Abington","state":"PA","postal_code":"19001","latitude":40.1328,"longitude":-75.1152,"stars":4.5,"review_count":12,"is_open":1,"attributes":"{\"BusinessAcceptsCreditCards\":\"True\",\"RestaurantsPriceRange2\":\"2\",\"BusinessParking\":\"{'garage': False, 'street': False, 'validated': False, 'lot': True, 'valet': False}\"}","categories":"Food, Beer, Wine & Spirits","hours":"{\"Monday\":\"10:0-20:0\",\"Tuesday\":\"10:0-20:0\",\"Wednesday\":\"10:0-20:0\",\"Thursday\":\"10:0-20:0\",\"Friday\":\"10:0-21:0\",\"Saturday\":\"9:0-21:0\",\"Sunday\":\"11:0-17:0\"}","distance":623.8024851653},{"business_id":"-G-p49zYwol8Sw9GP931VQ","name":"Rita's Italian Ice","address":"1700 Old York Rd","city":"Abington","state":"PA","postal_code":"19001","latitude":40.1321,"longitude":-75.1162,"stars":2.0,"review_count":11,"is_open":1,"attributes":"{\"BikeParking\":\"True\",\"BusinessParking\":\"{'garage': False, 'street': True, 'validated': False, 'lot': True, 'valet': False}\",\"RestaurantsPriceRange2\":\"1\",\"WiFi\":\"u'no'\",\"BusinessAcceptsCreditCards\":\"True\",\"WheelchairAccessible\":\"True\",\"BusinessAcceptsBitc","categories":"Shaved Ice, Food, Gelato, Ice Cream & Frozen Yogurt, Desserts","hours":"{\"Monday\":\"12:0-21:0\",\"Tuesday\":\"12:0-21:0\",\"Wednesday\":\"12:0-21:0\",\"Thursday\":\"12:0-21:0\",\"Friday\":\"12:0-21:0\",\"Saturday\":\"12:0-21:0\",\"Sunday\":\"12:0-21:0\"}","distance":619.2789768327},{"business_id":"JTM0CtxIIV8B9IEN8t4Plg","name":"La-Z-Boy Furniture Galleries","address":"1752 Old York Rd","city":"Abington","state":"PA","postal_code":"19001","latitude":40.1336,"longitude":-75.116,"stars":3.0,"review_count":10,"is_open":0,"attributes":"{\"RestaurantsPriceRange2\":\"3\",\"BusinessAcceptsCreditCards\":\"True\",\"BusinessParking\":\"{'garage': False, 'street': False, 'validated': False, 'lot': False, 'valet': False}\"}","categories":"Shopping, Home & Garden, Interior Design, Home Decor, Furniture Stores, Home Services","hours":"{\"Monday\":\"10:0-21:0\",\"Tuesday\":\"10:0-21:0\",\"Wednesday\":\"10:0-21:0\",\"Thursday\":\"10:0-21:0\",\"Friday\":\"10:0-21:0\",\"Saturday\":\"10:0-21:0\",\"Sunday\":\"11:0-18:0\"}","distance":735.6897988336},{"business_id":"cNF1m8e1-hkBfHmZyqdfIw","name":"Bubby's Auto Tags & Insurance","address":"1633 Old York Rd","city":"Abington","state":"PA","postal_code":"19001","latitude":40.1301,"longitude":-75.1161,"stars":5.0,"review_count":9,"is_open":1,"attributes":"{\"BusinessAcceptsCreditCards\":\"False\"}","categories":"Financial Services, Local Services, Insurance, Notaries","hours":"{\"Monday\":\"9:0-17:0\",\"Tuesday\":\"9:0-17:0\",\"Wednesday\":\"9:0-17:0\",\"Thursday\":\"9:0-17:0\",\"Friday\":\"9:0-17:0\"}","distance":482.3288522793},{"business_id":"vn1KdiQWFGHCH_O1nNtpjQ","name":"Armstrong Colt George Ophthalmology","address":"1550 Old York Rd, Ste 3","city":"Abington","state":"PA","postal_code":"19001","latitude":40.128,"longitude":-75.1175,"stars":2.5,"review_count":9,"is_open":1,"attributes":"{\"ByAppointmentOnly\":\"True\",\"AcceptsInsurance\":\"True\",\"BusinessAcceptsCreditCards\":\"True\"}","categories":"Health & Medical, Optometrists","hours":"NULL","distance":553.0788627972},{"business_id":"pf4hV73PkEyNAhADEaNLXQ","name":"Larmon Photo","address":"1621 Old York Rd","city":"Abington","state":"PA","postal_code":"19001","latitude":40.1299,"longitude":-75.1161,"stars":3.0,"review_count":9,"is_open":1,"attributes":"{\"RestaurantsPriceRange2\":\"2\",\"BusinessAcceptsCreditCards\":\"True\",\"BusinessParking\":\"{'garage': False, 'street': True, 'validated': False, 'lot': True, 'valet': False}\",\"WheelchairAccessible\":\"True\"}","categories":"Digitizing Services, Hotels & Travel, Photography Stores & Services, Shopping, Passport & Visa Services, Local Services, Printing Services, Travel Services, Professional Services","hours":"{\"Monday\":\"9:0-19:0\",\"Tuesday\":\"9:0-19:0\",\"Wednesday\":\"9:0-19:0\",\"Thursday\":\"9:0-19:0\",\"Friday\":\"9:0-19:0\",\"Saturday\":\"9:0-17:0\",\"Sunday\":\"11:0-17:0\"}","distance":473.010962364},{"business_id":"uaBIJAmgeeK30m7QRTibtw","name":"Philly Pretzel Factory","address":"1836 Old York Rd","city":"Abington","state":"PA","postal_code":"19001","latitude":40.1363,"longitude":-75.1146,"stars":4.0,"review_count":8,"is_open":1,"attributes":"{\"RestaurantsPriceRange2\":\"1\",\"BikeParking\":\"False\",\"BusinessParking\":\"{'garage': False, 'street': False, 'validated': False, 'lot': True, 'valet': False}\",\"BusinessAcceptsCreditCards\":\"True\",\"Caters\":\"True\",\"RestaurantsTakeOut\":\"True\",\"RestaurantsDeliver","categories":"Food, Hot Dogs, Pretzels, Restaurants, Bakeries","hours":"NULL","distance":951.2579326284},{"business_id":"p9KLbySL6xTJIvDIuxoGQg","name":"Penelope's Hair & Nail Design","address":"1621 Old York Rd","city":"Abington","state":"PA","postal_code":"19001","latitude":40.1299,"longitude":-75.1161,"stars":4.5,"review_count":8,"is_open":0,"attributes":"{\"RestaurantsPriceRange2\":\"2\",\"WheelchairAccessible\":\"True\",\"BikeParking\":\"True\",\"GoodForKids\":\"True\",\"ByAppointmentOnly\":\"True\",\"BusinessParking\":\"{'garage': False, 'street': False, 'validated': False, 'lot': False, 'valet': False}\",\"BusinessAcceptsCredi","categories":"Hair Salons, Nail Salons, Beauty & Spas, Makeup Artists","hours":"{\"Tuesday\":\"9:0-19:0\",\"Wednesday\":\"9:0-19:0\",\"Thursday\":\"9:0-19:0\",\"Friday\":\"9:0-19:0\",\"Saturday\":\"7:0-19:0\",\"Sunday\":\"9:0-16:0\"}","distance":473.010962364},{"business_id":"5MtzzOZi1dIR2yQgNQOhaA","name":"The Vitamin Shoppe","address":"1817 Old York Rd","city":"Abington","state":"PA","postal_code":"19001","latitude":40.1352,"longitude":-75.1144,"stars":4.5,"review_count":7,"is_open":1,"attributes":"{\"BusinessAcceptsCreditCards\":\"True\",\"BusinessParking\":\"{'garage': False, 'street': False, 'validated': False, 'lot': True, 'valet': False}\"}","categories":"Vitamins & Supplements, Specialty Food, Cosmetics & Beauty Supply, Health Markets, Beauty & Spas, Shopping, Food","hours":"{\"Monday\":\"0:0-0:0\",\"Tuesday\":\"9:30-21:0\",\"Wednesday\":\"9:30-21:0\",\"Thursday\":\"9:30-21:0\",\"Friday\":\"9:30-19:0\",\"Saturday\":\"10:0-19:0\",\"Sunday\":\"10:0-18:0\"}","distance":830.3030813098},{"business_id":"6kRQOVhn7Kmdlhd1knHSlw","name":"Fanta-C Beauty Bar","address":"1713 Old York Rd","city":"Abington","state":"PA","postal_code":"19001","latitude":40.132,"longitude":-75.1156,"stars":5.0,"review_count":7,"is_open":1,"attributes":"{\"GoodForKids\":\"True\",\"ByAppointmentOnly\":\"False\",\"RestaurantsPriceRange2\":\"2\",\"BusinessAcceptsCreditCards\":\"True\"}","categories":"Hair Salons, Hair Stylists, Blow Dry\/Out Services, Makeup Artists, Hair Extensions, Nail Salons, Waxing, Beauty & Spas, Hair Removal","hours":"{\"Monday\":\"10:0-12:0\",\"Tuesday\":\"9:0-14:0\",\"Wednesday\":\"9:0-18:0\",\"Thursday\":\"9:0-18:0\",\"Friday\":\"9:0-19:0\",\"Saturday\":\"8:0-16:0\",\"Sunday\":\"10:0-15:0\"}","distance":575.7477603511},{"business_id":"k1PnkLtNx6whR-4fxKBAKw","name":"Collaborative Care of Abington","address":"1369 Old York Rd","city":"Abington","state":"PA","postal_code":"19001","latitude":40.1212,"longitude":-75.1176,"stars":2.0,"review_count":7,"is_open":1,"attributes":"NULL","categories":"Doctors, Counseling & Mental Health, Psychiatrists, Health & Medical","hours":"NULL","distance":959.559110347},{"business_id":"1Hi_OCUDGKQ5c7cMzlOJQQ","name":"PM Pediatrics","address":"1495 Old York Rd","city":"Abington","state":"PA","postal_code":"19001","latitude":40.1253,"longitude":-75.1157,"stars":3.5,"review_count":7,"is_open":1,"attributes":"{\"BusinessAcceptsCreditCards\":\"True\",\"WiFi\":\"u'free'\",\"AcceptsInsurance\":\"True\"}","categories":"Doctors, Urgent Care, Health & Medical, Pediatricians","hours":"{\"Monday\":\"12:0-0:0\",\"Tuesday\":\"12:0-0:0\",\"Wednesday\":\"12:0-0:0\",\"Thursday\":\"12:0-0:0\",\"Friday\":\"12:0-20:0\",\"Saturday\":\"14:0-0:0\",\"Sunday\":\"10:0-22:0\"}","distance":513.4846425051},{"business_id":"7jyJmzz5hT5SdoZD0vzrxQ","name":"Salon New","address":"1751 Old York Rd","city":"Abington","state":"PA","postal_code":"19001","latitude":40.133,"longitude":-75.1152,"stars":4.0,"review_count":7,"is_open":1,"attributes":"{\"BusinessParking\":\"{'garage': False, 'street': False, 'validated': False, 'lot': False, 'valet': False}\"}","categories":"Beauty & Spas, Nail Salons, Hair Removal, Waxing, Eyelash Service","hours":"{\"Monday\":\"10:0-19:30\",\"Tuesday\":\"10:0-19:30\",\"Wednesday\":\"10:0-19:30\",\"Thursday\":\"10:0-19:30\",\"Friday\":\"10:0-19:30\",\"Saturday\":\"9:30-18:0\"}","distance":642.1635861015},{"business_id":"pcCEUMSvRHeW-2OttkaFgg","name":"Baja Fresh Mexican Grill","address":"1437 Old York Rd","city":"Abington","state":"PA","postal_code":"19001","latitude":40.1225,"longitude":-75.1173,"stars":3.5,"review_count":6,"is_open":0,"attributes":"{\"Alcohol\":\"u'none'\",\"RestaurantsGoodForGroups\":\"True\",\"RestaurantsPriceRange2\":\"1\",\"RestaurantsDelivery\":\"False\",\"RestaurantsAttire\":\"u'casual'\",\"OutdoorSeating\":\"False\",\"BusinessAcceptsCreditCards\":\"True\",\"RestaurantsReservations\":\"False\",\"HasTV\":\"False","categories":"Restaurants, Mexican","hours":"NULL","distance":829.8412777244},{"business_id":"1U-4B5gkUATXtsZrZ-KwSw","name":"Picasso Dental Arts","address":"1550 Old York Rd, Ste 4","city":"Abington","state":"PA","postal_code":"19001","latitude":40.1284,"longitude":-75.117,"stars":2.0,"review_count":6,"is_open":1,"attributes":"{\"ByAppointmentOnly\":\"False\"}","categories":"Health & Medical, General Dentistry, Dentists","hours":"{\"Wednesday\":\"15:0-19:0\",\"Friday\":\"9:0-14:0\",\"Saturday\":\"8:0-13:0\"}","distance":510.6044823475},{"business_id":"UoxyIYP2Gf3ugrFiylyJrA","name":"Socialsport Dance Club","address":"1634 Old York Rd","city":"Abington","state":"PA","postal_code":"19001","latitude":40.1305,"longitude":-75.1167,"stars":3.5,"review_count":5,"is_open":1,"attributes":"{\"GoodForKids\":\"False\",\"BusinessAcceptsCreditCards\":\"True\",\"WheelchairAccessible\":\"True\",\"ByAppointmentOnly\":\"True\"}","categories":"Fitness & Instruction, Active Life, Dance Studios, Arts & Entertainment, Performing Arts, Education, Dance Schools, Specialty Schools","hours":"{\"Monday\":\"14:0-22:0\",\"Tuesday\":\"14:0-22:0\",\"Wednesday\":\"14:0-22:0\",\"Thursday\":\"14:0-22:0\",\"Friday\":\"14:0-22:0\"}","distance":547.9513094585},{"business_id":"YI9NPlcOxYm0NA-pgGII7g","name":"Sally Beauty Supply","address":"1429 Old York Rd","city":"Abington","state":"PA","postal_code":"19001","latitude":40.1232,"longitude":-75.1158,"stars":2.5,"review_count":5,"is_open":0,"attributes":"{\"RestaurantsPriceRange2\":\"2\",\"BusinessAcceptsCreditCards\":\"True\",\"BikeParking\":\"False\",\"ByAppointmentOnly\":\"False\",\"BusinessParking\":\"{'garage': False, 'street': False, 'validated': False, 'lot': True, 'valet': False}\"}","categories":"Beauty & Spas, Cosmetics & Beauty Supply, Shopping","hours":"NULL","distance":689.6831494422},{"business_id":"0OzT6ZgrYZNP95LMbbt2BQ","name":"D D Daughters Lace Wig Beautique","address":"1417 Old York Rd, Ste 207B","city":"abington","state":"PA","postal_code":"19001","latitude":40.1227,"longitude":-75.1165,"stars":2.5,"review_count":5,"is_open":1,"attributes":"{\"RestaurantsPriceRange2\":\"1\",\"ByAppointmentOnly\":\"True\",\"BikeParking\":\"False\",\"BusinessAcceptsCreditCards\":\"True\",\"DogsAllowed\":\"False\",\"HairSpecializesIn\":\"{'straightperms': True, 'coloring': True, 'extensions': True, 'africanamerican': True, 'curly': T","categories":"Wigs, Makeup Artists, Hair Extensions, Shopping, Hair Salons, Beauty & Spas, Hair Stylists, Blow Dry\/Out Services","hours":"{\"Wednesday\":\"10:0-17:0\",\"Thursday\":\"10:0-17:30\",\"Friday\":\"10:0-17:0\",\"Saturday\":\"8:30-13:0\"}","distance":769.8687129973},{"business_id":"LjHc51EB9aSXwauXxHuwMA","name":"Rite Aid","address":"1441 Old York Rd","city":"Abington","state":"PA","postal_code":"19001","latitude":40.1235,"longitude":-75.1157,"stars":3.5,"review_count":5,"is_open":1,"attributes":"{\"BusinessParking\":\"{'garage': False, 'street': False, 'validated': False, 'lot': False, 'valet': False}\",\"RestaurantsPriceRange2\":\"1\",\"BusinessAcceptsCreditCards\":\"True\"}","categories":"Drugstores, Shopping, Food, Convenience Stores, Photography Stores & Services","hours":"{\"Monday\":\"7:0-22:0\",\"Tuesday\":\"7:0-22:0\",\"Wednesday\":\"7:0-22:0\",\"Thursday\":\"7:0-22:0\",\"Friday\":\"7:0-22:0\",\"Saturday\":\"7:0-22:0\",\"Sunday\":\"7:0-22:0\"}","distance":657.8863811263},{"business_id":"UakNLXnT064AxmsTa_2iEw","name":"Target Optical","address":"1495 Old York Rd","city":"Abington","state":"PA","postal_code":"19001","latitude":40.1254,"longitude":-75.1159,"stars":2.0,"review_count":5,"is_open":1,"attributes":"{\"BikeParking\":\"False\",\"RestaurantsPriceRange2\":\"3\",\"BusinessParking\":\"{'garage': False, 'street': False, 'validated': False, 'lot': False, 'valet': False}\",\"BusinessAcceptsCreditCards\":\"True\"}","categories":"Eyewear & Opticians, Shopping, Health & Medical, Optometrists","hours":"{\"Monday\":\"10:0-20:0\",\"Tuesday\":\"10:0-20:0\",\"Wednesday\":\"10:0-20:0\",\"Thursday\":\"10:0-20:0\",\"Friday\":\"10:0-20:0\",\"Saturday\":\"9:0-18:0\",\"Sunday\":\"12:0-16:0\"}","distance":520.0939570507},{"business_id":"v3jhAHsVHbte9k203-4KjQ","name":"Abington Animal Hospital","address":"1626 Old York Rd","city":"Abington","state":"PA","postal_code":"19001","latitude":40.1303,"longitude":-75.1168,"stars":2.0,"review_count":5,"is_open":1,"attributes":"NULL","categories":"Pets, Veterinarians, Pet Services","hours":"{\"Monday\":\"9:0-19:30\",\"Tuesday\":\"9:0-19:30\",\"Wednesday\":\"9:0-19:30\",\"Thursday\":\"9:0-19:30\",\"Friday\":\"9:30-16:30\",\"Saturday\":\"9:30-16:30\"}","distance":545.6034831093}]